type,longitude,latitude,dispositionX,dispositionY,velocityX,velocityY
Raw,0,0,0.24811715491263264,0.07850434846635146,0.0,0.0
Raw,0,0,0.8971533239037908,1.3726154692622994,0.0,0.0
Processed,0,0,0.4103761971604222,0.40203212866533844,0.6490361689911581,1.294111120795948
Raw,0,0,0.577733623090666,2.232349691785152,0.0,0.0
Processed,0,0,0.45221555364298316,0.8596115194452918,0.16735742593024394,1.8303175631198134
Raw,0,0,-0.2473903690197372,3.2788500936583764,0.0,0.0
Processed,0,0,0.27731407297730304,1.4644211629985628,-0.6996059226627205,2.419238574213084
Raw,0,0,0.3636764540997599,4.596156942631449,0.0,0.0
Processed,0,0,0.2989046682579173,2.2473551079067846,0.08636238112245698,3.131735779632887
Raw,0,0,-0.5712155261307379,7.022273963783975,0.0,0.0
Processed,0,0,0.08137461966075349,3.441084821876082,-0.8701201943886552,4.774918855877189
Raw,0,0,0.0,0.0,0.0,0.0
Raw,0,0,0.815586918080691,9.838949078107849,0.0,0.0
Processed,0,0,0.26492769426573787,5.040550885934024,0.7342122984199375,6.397864256231767
Raw,0,0,-0.6363249245767999,10.255909860865396,0.0,0.0
Processed,0,0,0.03961453955510341,6.344390629666867,-0.9012526188425378,5.215358974931373
Raw,0,0,-0.5820061312784806,12.559094389924612,0.0,0.0
Processed,0,0,-0.11579062815329258,7.898066569731302,-0.621620670833584,6.214703760257741
Raw,0,0,-0.04459709409438117,13.83995726120339,0.0,0.0
Processed,0,0,-0.09799224463856473,9.383539242599324,0.07119353405891138,5.941890691472089
Raw,0,0,0.0,0.0,0.0,0.0
Raw,0,0,0.2894596410902721,15.82717062804708,0.0,0.0
Processed,0,0,-0.00112927320635553,10.994447088961262,0.3874518857288368,6.443631385447752
Raw,0,0,-0.01159556659862715,17.561710498058503,0.0,0.0
Processed,0,0,-0.003745846554423435,12.636262941235572,-0.01046629339227162,6.567263409097237
Raw,0,0,0.0,0.0,0.0,0.0
Motor,0,0,0.0,18.537896871566772,0.0,0.0
Raw,0,0,0.421348598251168,20.4179758185116,0.0,0.0
Processed,0,0,0.10252776464697443,14.581691160554579,0.42509444480559144,7.7817128772760285
Raw,0,0,0.043698666602471015,21.70239570520649,0.0,0.0
Processed,0,0,0.08782049013584857,16.361867296717556,-0.058829098044503425,7.1207045446519075
Raw,0,0,-0.04319386288349669,22.481647014232603,0.0,0.0
Processed,0,0,0.05506690188101225,17.891812226096317,-0.13101435301934528,6.119779717515044
Raw,0,0,-0.9371277094394164,23.165577118503716,0.0,0.0
Processed,0,0,-0.19298175094909492,19.210253449198166,-0.9921946113204287,5.273764892407399
Motor,0,0,0.0,25.038450956344604,0.0,0.0
Raw,0,0,-0.1791932609069633,25.020858821747943,0.0,0.0
Processed,0,0,-0.189534628438562,20.66290479233561,0.013788490042131674,5.810605372549773
Raw,0,0,0.9699998931802396,27.63131631662628,0.0,0.0
Processed,0,0,0.10034900196613838,22.405007673408278,1.1595345216188016,6.968411524290673
Raw,0,0,0.0,0.0,0.0,0.0
Raw,0,0,0.9242934534061567,29.25338159067198,0.0,0.0
Processed,0,0,0.30633511482614295,24.117101152724203,0.8239444514400183,6.8483739172637
Raw,0,0,0.6708441814254746,30.46776378666658,0.0,0.0
Processed,0,0,0.3974623814759759,25.704766811209797,0.3645090665993318,6.3506626339423775
Raw,0,0,0.7667762874934401,31.829703967784223,0.0,0.0
Processed,0,0,0.48979085798034194,27.236001100353405,0.36931390601746417,6.124937156574433
Raw,0,0,0.4620365956832433,33.66561493537818,0.0,0.0
Processed,0,0,0.48285229240606725,28.8434045591096,-0.027754262297098764,6.429613835024782
Motor,0,0,0.0,34.251418113708496,0.0,0.0
Raw,0,0,0.4188318030992799,35.55115495633936,0.0,0.0
Processed,0,0,0.46684717007937043,30.52034215841704,-0.06402048930678728,6.707750397229759
Raw,0,0,0.17449007382912307,35.77040738320655,0.0,0.0
Processed,0,0,0.3937578960168086,31.832858464614418,-0.2923570962502473,5.250065224789509
Raw,0,0,0.23828271890890496,36.402899858958435,0.0,0.0
Processed,0,0,0.3548891017398327,32.97536881320042,-0.1554751771079037,4.570041394344003
Raw,0,0,0.4330199509503665,38.718700821602106,0.0,0.0
Processed,0,0,0.37442181404246616,34.41120181530084,0.07813084921053393,5.743332008401694
Raw,0,0,-0.13361407070771736,40.363921332959656,0.0,0.0
Processed,0,0,0.24741284285492027,35.899381694715544,-0.5080358847501836,5.952719517658807
Raw,0,0,-0.4016076186536306,41.93059410703933,0.0,0.0
Processed,0,0,0.08515772747778255,37.40718479779649,-0.6490204615085509,6.031212412323782
Raw,0,0,-0.8416207157624183,42.326165699011874,0.0,0.0
Processed,0,0,-0.14653688333226766,38.636930023100334,-0.9267784432402009,4.918980901215377
Raw,0,0,0.1532345195495799,43.705012275414454,0.0,0.0
Processed,0,0,-0.07159403261180577,39.903950586178865,0.29977140288184756,5.068082252314127
Motor,0,0,0.0,44.11774039268494,0.0,0.0
Raw,0,0,0.8230170476791594,45.5513226248999,0.0,0.0
Processed,0,0,0.1520587374609355,41.31579359585913,0.8946110802909651,5.647372038721045
Raw,0,0,-0.20615624549786915,46.16721218005423,0.0,0.0
Processed,0,0,0.06250499172123435,42.5286482419079,-0.35821498295880466,4.851418584195102
Raw,0,0,-0.25200429957635295,47.057216631673626,0.0,0.0
Processed,0,0,-0.016122331103162482,43.66079033934933,-0.3145092912975873,4.528568389765724
Raw,0,0,-0.6457502109423376,48.748808972286625,0.0,0.0
Processed,0,0,-0.17352930106295628,44.932794997583656,-0.6296278798391752,5.088018632937292
Raw,0,0,0.9408808047962378,51.380277728745014,0.0,0.0
Processed,0,0,0.10507322540184225,46.544665680373996,1.1144101058591942,6.447482731161358
Raw,0,0,-0.8911046758791106,52.623404514722395,0.0,0.0
Processed,0,0,-0.14397124991839597,48.06435038896109,-0.9961779012809528,6.078738834348371
Raw,0,0,-0.9313073501158373,53.24573829333025,0.0,0.0
Processed,0,0,-0.3408052749677563,49.35969736505338,-0.7873361001974414,5.18138790436916
Motor,0,0,0.0,54.05188202857971,0.0,0.0
Raw,0,0,0.30567489309391327,54.67288470595251,0.0,0.0
Processed,0,0,-0.1791852329523389,50.68799420027817,0.6464801680616696,5.313187340899162
Raw,0,0,-0.791575957901532,56.4462672467569,0.0,0.0
Processed,0,0,-0.3322829141896372,52.12756246189785,-0.6123907249491931,5.758273046478735
Raw,0,0,0.0,0.0,0.0,0.0
Raw,0,0,0.5325633589680199,57.98409394369177,0.0,0.0
Processed,0,0,-0.11607134590022292,53.591695332346326,0.864846273157657,5.856531481793894
Raw,0,0,0.17301704037433518,59.61560790461591,0.0,0.0
Processed,0,0,-0.043799249331583384,55.09767347541373,0.28908838627455813,6.023912572269609
Raw,0,0,0.79298915797957,61.48177380278161,0.0,0.0
Processed,0,0,0.16539785249620498,56.6936985572557,0.8367884073111534,6.384100327367889
Raw,0,0,0.5116045227541459,62.570521571004,0.0,0.0
Processed,0,0,0.2519495200606902,58.16290431069278,0.34620667025794094,5.8768230137483215
Raw,0,0,0.04375200286271763,64.68596549167388,0.0,0.0
Processed,0,0,0.19990014076119705,59.79366960593805,-0.20819751719797264,6.523061180981074
Motor,0,0,0.0,64.51975107192993,0.0,0.0
Raw,0,0,0.06742023309982459,64.92588732290234,0.0,0.0
Processed,0,0,0.16678016384585392,61.076724035179126,-0.13247990766137252,5.1322177169643055
Raw,0,0,0.2532211201497454,66.25191716140431,0.0,0.0
Processed,0,0,0.1883904029218268,62.37052231673542,0.08644095630389148,5.175193126225167
Raw,0,0,0.0,0.0,0.0,0.0
Raw,0,0,-0.6879485323358403,69.97031003123344,0.0,0.0
Processed,0,0,-0.030694330892589994,64.27046924535992,-0.8763389352576672,7.599787714498007
Raw,0,0,-0.0007852903500960018,70.87820230188883,0.0,0.0
Processed,0,0,-0.023217070756966496,65.92240250949214,0.029909040542493992,6.6077330565289
Raw,0,0,-0.20208662775734987,71.61698134887226,0.0,0.0
Processed,0,0,-0.06793446000706234,67.34604721933718,-0.17886955700038337,5.694578839380142
Raw,0,0,0.8237917888120094,74.09199551919843,0.0,0.0
Processed,0,0,0.1549971021977056,69.0325342943025,0.8917262488190718,6.745948299861254
Motor,0,0,0.0,74.67706084251404,0.0,0.0
Raw,0,0,0.31600921032331186,75.29258072394319,0.0,0.0
Processed,0,0,0.19525012922910717,70.59754590171266,0.1610121081256063,6.260046429640681
Raw,0,0,-0.8062100319460006,77.01314986964826,0.0,0.0
Processed,0,0,-0.05511491106466976,72.20144689369656,-1.0014601611751077,6.415603967935567
Raw,0,0,-0.2266969241127681,76.69984844826503,0.0,0.0
Processed,0,0,-0.09801041432669434,73.32604728233868,-0.17158201304809834,4.498401554568488
Raw,0,0,0.6761068465229176,79.59653396374176,0.0,0.0
Processed,0,0,0.09551890088570865,74.89366895268945,0.774117260849612,6.270486681403099
Raw,0,0,-0.15076073215909003,81.02381780776366,0.0,0.0
Processed,0,0,0.033948992624508983,76.426206166458,-0.24627963304479866,6.1301488550741965
Raw,0,0,0.9819927362310084,82.00133077422511,0.0,0.0
Processed,0,0,0.2709599285261338,77.81998731839978,0.9480437436064993,5.575124607767123
Raw,0,0,-0.3967241419404073,83.57057469216876,0.0,0.0
Processed,0,0,0.10403891090949854,79.25763416184202,-0.6676840704665411,5.750587373768951
Motor,0,0,0.0,84.11667466163635,0.0,0.0
Raw,0,0,-0.9528568559109645,83.62768842062829,0.0,0.0
Processed,0,0,-0.16018503079561722,80.35014772653858,-1.056895766820463,4.37005425878624
Raw,0,0,-0.28311503318550013,85.60996339160451,0.0,0.0
Processed,0,0,-0.19091753139308795,81.66510164280507,-0.12293000238988294,5.2598156650659575
Raw,0,0,0.1577223530620786,88.0383457652912,0.0,0.0
Processed,0,0,-0.10375756027929631,83.2584126734266,0.3486398844551666,6.373244122486142
Raw,0,0,0.9636211928470264,88.163152747644,0.0,0.0
Processed,0,0,0.16308712800228437,84.48459769198095,1.0673787531263228,4.904740074217386
Raw,0,0,-0.2336494218350471,89.1133892120697,0.0,0.0
Processed,0,0,0.0639029905429515,85.64179557200313,-0.3967365498373315,4.6287915200887255
Raw,0,0,0.0,0.0,0.0,0.0
Raw,0,0,0.03376472898285199,92.80400561988115,0.0,0.0
Processed,0,0,0.056368425152926616,87.43234808397263,-0.030138261560099522,7.162210047877977
Raw,0,0,0.3679982061240812,93.05190010433721,0.0,0.0
Processed,0,0,0.13427587039571526,88.83723608906378,0.31162978097115457,5.619552020364608
Raw,0,0,-0.2735537082662802,94.3545582737288,0.0,0.0
Processed,0,0,0.03231847573021639,90.21656663523004,-0.4078295786619955,5.5173221846650335
Motor,0,0,0.0,95.23930072784424,0.0,0.0
Raw,0,0,-0.6940829317225914,96.37934765438787,0.0,0.0
Processed,0,0,-0.14928187613298555,91.75726189001949,-0.7264014074528078,6.162781019157819
Raw,0,0,0.8299250359815247,97.933166095427,0.0,0.0
Processed,0,0,0.09551985189564201,93.30123794137137,0.9792069121145102,6.175904205407505
Raw,0,0,-0.48549493490860374,99.3705830454284,0.0,0.0
Processed,0,0,-0.049733844805419425,94.81857421738563,-0.5810147868042457,6.069345104057049
Raw,0,0,0.5208590117403238,99.45146785546498,0.0,0.0
Processed,0,0,0.09291436933101638,95.97679762690547,0.5705928565457432,4.632893638079338
Raw,0,0,-0.7316147655496983,102.59185891620862,0.0,0.0
Processed,0,0,-0.11321791438916229,97.63056294923126,-0.8245291348807147,6.615061289303185
Raw,0,0,-0.29626125611040566,103.58011244305153,0.0,0.0
Processed,0,0,-0.15897874981947313,99.11795032268633,-0.18304334172124337,5.949549493820257
Motor,0,0,0.0,103.80560040473938,0.0,0.0
Raw,0,0,0.5062072865801601,103.8699754701519,0.0,0.0
Processed,0,0,0.007317759280435182,100.30595660955271,0.6651860363996333,4.752025147465531
Raw,0,0,0.27591548429992385,106.41928366346862,0.0,0.0
Processed,0,0,0.07446719053530734,101.83428837303168,0.26859772501948864,6.113327053915896
Raw,0,0,-0.02693994726063731,106.39332286970728,0.0,0.0
Processed,0,0,0.04911540608632118,102.97404699720059,-0.10140713779594465,4.559034496675622
Raw,0,0,0.41152486721800097,107.480233143133,0.0,0.0
Processed,0,0,0.13971777136924113,104.10059353368368,0.3624094611316798,4.506186145932361
Raw,0,0,0.49139573786002066,108.64589220555922,0.0,0.0
Processed,0,0,0.227637262991936,105.23691820165257,0.35167796649077954,4.545298671875571
Raw,0,0,0.3723075517811636,111.40799329000386,0.0,0.0
Processed,0,0,0.2638048351892429,106.7796869737404,0.1446702887892276,6.1710750883513015
Raw,0,0,0.6146577693902258,112.32838582526485,0.0,0.0
Processed,0,0,0.35151806873948865,108.1668616866215,0.35085293420098296,5.548698851524421
Raw,0,0,0.0,0.0,0.0,0.0
Motor,0,0,0.0,114.14732575416566,0.0,0.0
Raw,0,0,0.42396725811898395,114.96822639476676,0.0,0.0
Processed,0,0,0.36963036608436245,109.86720286365782,0.07244918937949518,6.801364708145286
Raw,0,0,0.8593046958173098,115.7063825976863,0.0,0.0
Processed,0,0,0.4920489485175993,111.32699779716494,0.48967432973294733,5.839179734028448
Raw,0,0,0.0,0.0,0.0,0.0
Raw,0,0,0.5954443834027259,118.36557314527072,0.0,0.0
Processed,0,0,0.5178978072388809,113.08664163419138,0.10339543488512648,7.0385753481057804
Raw,0,0,-0.5983172293371879,119.06825782635359,0.0,0.0
Processed,0,0,0.2388440480948637,114.58204568223194,-1.1162150365760688,5.981616192162221
Raw,0,0,-0.8077801439983694,121.51882223618303,0.0,0.0
Processed,0,0,-0.02281199992844457,116.31623982071972,-1.046624192093233,6.93677655395112
Raw,0,0,0.0,0.0,0.0,0.0
Raw,0,0,0.8520344841774918,122.76250550662746,0.0,0.0
Processed,0,0,0.19589962109803954,117.92780624219665,0.8748464841059365,6.446265685907747
Raw,0,0,-0.7882878801021109,124.3819952211074,0.0,0.0
Processed,0,0,-0.05014725420199806,119.54135348692434,-0.9841875012001504,6.454188978910736
Motor,0,0,0.0,125.74749946594237,0.0,0.0
Raw,0,0,0.3919600926989628,127.28559802539068,0.0,0.0
Processed,0,0,0.06037958252324216,121.47741462154093,0.4421073469009609,7.744244538466376
Raw,0,0,0.13193915303110537,127.11259905398023,0.0,0.0
Processed,0,0,0.07826947515020796,122.88621072965077,0.07155957050786321,5.63518443243936
Raw,0,0,-0.39841170665555947,128.61950987881028,0.0,0.0
Processed,0,0,-0.040900820301233896,124.31953551694065,-0.47668118180576746,5.733299149159507
Raw,0,0,0.6814958421727761,131.09423687600975,0.0,0.0
Processed,0,0,0.1396983453172686,126.01321085670793,0.72239666247401,6.774701359069127
Raw,0,0,0.9467341031653258,132.5427459037624,0.0,0.0
Processed,0,0,0.3414572847792829,127.64559461847155,0.8070357578480571,6.52953504705448
Raw,0,0,-0.740625511917,132.72908314763407,0.0,0.0
Processed,0,0,0.07093658560521215,128.9164667507622,-1.082082796696283,5.083488529162594
Motor,0,0,0.0,134.0681540966034,0.0,0.0
Raw,0,0,-0.8084009570546449,133.5033498776679,0.0,0.0
Processed,0,0,-0.14889780005975212,130.06318753248863,-0.8793375426598571,4.586883126905718
Raw,0,0,0.0,0.0,0.0,0.0
Raw,0,0,0.6428191470855389,136.94232865779654,0.0,0.0
Processed,0,0,0.049031436726570635,131.7829728138156,0.791716947145291,6.87914112530791
Raw,0,0,0.0,0.0,0.0,0.0
Raw,0,0,-0.8971465612844496,140.4927608287731,0.0,0.0
Processed,0,0,-0.1875130627761844,133.96041981755496,-0.9461779980110201,8.70978801495744
Raw,0,0,0.7688666928421461,141.12716089916015,0.0,0.0
Processed,0,0,0.051581876128398235,135.75210508795627,0.9563797556183306,7.16674108160521
Raw,0,0,0.4597980476154939,141.60163050286843,0.0,0.0
Processed,0,0,0.15363591900017215,137.2144864416843,0.40821617148709566,5.8495254149121365
Raw,0,0,0.652605882687725,142.96185748758347,0.0,0.0
Processed,0,0,0.27837840992206037,138.6513292031591,0.49896996368755286,5.747371045899172
Motor,0,0,0.0,144.68446135520935,0.0,0.0
Raw,0,0,-0.5989726259544661,144.77194147168626,0.0,0.0
Processed,0,0,0.059040650952928764,140.18148227029087,-0.8773510358765264,6.120612268527111
Raw,0,0,-0.11558143363826878,147.1471942652471,0.0,0.0
Processed,0,0,0.015385129805129377,141.92291026902993,-0.17462208459119755,6.965711994956223
Raw,0,0,-0.4145092642439452,147.71249704768874,0.0,0.0
Processed,0,0,-0.09208846870713927,143.37030696369465,-0.4298943940490746,5.789586778658872
Raw,0,0,0.15068280492258013,148.4791353917627,0.0,0.0
Processed,0,0,-0.03139565029970942,144.64751407071165,0.2427712736297194,5.108828428068023
Raw,0,0,-0.2650860991014925,149.02499833839886,0.0,0.0
Processed,0,0,-0.08981826250015519,145.74188513763346,-0.23369044880178308,4.377484267687237
Raw,0,0,2.365057090322315,149.89827518585233,0.0,0.0
Processed,0,0,0.5239005757054624,146.78098264968818,2.4548753528224707,4.156390048218896
Raw,0,0,2.817511743372395,149.29840456642907,0.0,0.0
Processed,0,0,1.0973033676221955,147.4103381288734,2.293611167666932,2.5174219167408864
Raw,0,0,3.6661784962472574,150.08913521418015,0.0,0.0
Processed,0,0,1.739522149778461,148.0800374002001,2.568875128625062,2.678797085306769
Raw,0,0,4.711449076633185,149.29978883230672,0.0,0.0
Processed,0,0,2.482503881492142,148.38497525822675,2.9719269268547235,1.219751432106591
Raw,0,0,7.813717874192111,150.9709824659415,0.0,0.0
Processed,0,0,3.815307379667134,149.03147706015542,5.331213992699968,2.586007207714715
Motor,0,0,7.426204681396484,150.0,0.0,0.0
Raw,0,0,8.425147063457395,149.83994987144322,0.0,0.0
Processed,0,0,4.9677673006147,149.23359526297736,4.609839683790263,0.8084728112877428
Raw,0,0,10.525455829837071,149.6300963393796,0.0,0.0
Processed,0,0,6.3571894329202925,149.33272053207793,5.557688529222371,0.3965010764022736
Raw,0,0,10.575494993399984,150.74677152119835,0.0,0.0
Processed,0,0,7.411765823040215,149.68623327935802,4.218305560479688,1.4140509891203692
Raw,0,0,12.979505751750967,149.63113567972616,0.0,0.0
Processed,0,0,8.803700805217904,149.67245887945006,5.567739928710758,-0.05509759963183569
Raw,0,0,14.018446745906449,150.67982312015093,0.0,0.0
Processed,0,0,10.10738729039004,149.92429993962529,5.214745940688545,1.0073642407008947
Raw,0,0,14.96838084671868,149.99671422124402,0.0,0.0
Processed,0,0,11.3226356794722,149.94240351002998,4.860993556328637,0.07241428161876229
Raw,0,0,16.476625421889576,150.01856522657476,0.0,0.0
Processed,0,0,12.611133115076544,149.96144393916617,5.15398974241738,0.07616171654478876
Raw,0,0,18.31317160377323,149.93396914941286,0.0,0.0
Processed,0,0,14.036642737250716,149.95457524172784,5.702038488696687,-0.02747478975334161
Motor,0,0,18.027151823043823,150.0,0.0,0.0
Raw,0,0,19.52471523635683,149.02939874629655,0.0,0.0
Processed,0,0,15.408660862027244,149.72328111787002,5.48807249910611,-0.9251764954312875
Raw,0,0,21.20020497018772,150.79560243845705,0.0,0.0
Processed,0,0,16.85654688906736,149.9913614480168,5.7915441081604655,1.0723213205870934
Raw,0,0,21.98533281322531,150.95359723073753,0.0,0.0
Processed,0,0,18.138743370106848,150.23192039369698,5.1287859241579525,0.9622357827207679
Raw,0,0,22.817155184738773,150.35872288534637,0.0,0.0
Processed,0,0,19.30834632376483,150.2636210166093,4.678411814631929,0.12680249164930046
Raw,0,0,23.874405251944776,149.19211473262177,0.0,0.0
Processed,0,0,20.449861055809816,149.99574444561242,4.566058928179942,-1.07150628398756
Raw,0,0,24.936030654545505,150.17172677221126,0.0,0.0
Processed,0,0,21.571403455493737,150.03974002726213,4.486169598735685,0.1759823265988416
Raw,0,0,26.052494029783976,149.2082551797909,0.0,0.0
Processed,0,0,22.691676099066296,149.83186881539433,4.481090574290235,-0.831484847471188
Raw,0,0,28.38983691896643,149.71164474843124,0.0,0.0
Processed,0,0,24.11621630404133,149.80181279865354,5.698160819900139,-0.12022406696314647
Motor,0,0,28.458518981933594,150.0,0.0,0.0
Raw,0,0,29.30391925225636,149.3398436826288,0.0,0.0
Processed,0,0,25.41314204109509,149.68632051964735,5.187702948215033,-0.4619691160247612
Raw,0,0,31.453812428260253,150.03211569384786,0.0,0.0
Processed,0,0,26.92330963788638,149.7727693131975,6.040670387165164,0.3457951742005889
Raw,0,0,31.702332121643586,150.59150745017126,0.0,0.0
Processed,0,0,28.11806525882568,149.97745384744093,4.779022483757203,0.8187381369737068
Raw,0,0,34.4114836246941,150.64262979240837,0.0,0.0
Processed,0,0,29.691419850292785,150.1437478336828,6.293418365868419,0.6651759449674728
Raw,0,0,34.414654050384534,149.70127217305617,0.0,0.0
Processed,0,0,30.87222840031572,150.03312891852613,4.723234200091738,-0.44247566062665555
Raw,0,0,36.72373061280078,149.54016839902442,0.0,0.0
Processed,0,0,32.335103953436985,149.9098887886507,5.851502212485059,-0.4929605195017075
Raw,0,0,37.50580987233675,150.05658007747778,0.0,0.0
Processed,0,0,33.627780433161924,149.94656161085746,5.170705918899756,0.14669128882701443
Motor,0,0,38.540892601013184,150.0,0.0,0.0
Raw,0,0,0.0,0.0,0.0,0.0
Raw,0,0,41.12066089239085,149.47521091388887,0.0,0.0
Processed,0,0,35.501000547969156,149.82872393661532,7.492880459228928,-0.4713506969685568
Raw,0,0,40.89950524003512,150.53150549997503,0.0,0.0
Processed,0,0,36.850626720985645,150.00441932745525,5.398504692065956,0.7027815633597356
Raw,0,0,42.44961191888985,150.88538953099956,0.0,0.0
Processed,0,0,38.250373020461694,150.22466187834132,5.598985197904199,0.8809702035442797
Raw,0,0,44.28820681538522,150.85362653623707,0.0,0.0
Processed,0,0,39.75983146919258,150.38190304281528,6.037833794923529,0.6289646578958354
Raw,0,0,45.858751333846385,150.52072228200973,0.0,0.0
Processed,0,0,41.284561435356025,150.41660785261388,6.098919864653794,0.13881923919439032
Raw,0,0,47.260356116596014,150.18456241079951,0.0,0.0
Processed,0,0,42.77851010566602,150.3585964921603,5.975794681239989,-0.2320454418143072
Raw,0,0,47.964104322807415,150.50397754039622,0.0,0.0
Processed,0,0,44.074908659951376,150.39494175421927,5.185594217141414,0.14538104823589038
Motor,0,0,48.37487578392029,150.0,0.0,0.0
Raw,0,0,48.642029551507385,149.05229726725508,0.0,0.0
Processed,0,0,45.21668888284038,150.05928063247822,4.567120891556016,-1.3426444869642182
Raw,0,0,50.28358359025489,150.53914928950022,0.0,0.0
Processed,0,0,46.48341255969401,150.1792477967337,5.066894707414519,0.4798686570219388
Raw,0,0,51.480887571549275,149.8177684144201,0.0,0.0
Processed,0,0,47.73278131265782,150.0888779511553,4.997475011855244,-0.3614793823136324
Raw,0,0,53.48134118029788,150.33430392475938,0.0,0.0
Processed,0,0,49.16992127956783,150.15023444455633,5.74855986764004,0.2454259736041422
Raw,0,0,54.35718203767933,150.30411412967368,0.0,0.0
Processed,0,0,50.46673646909571,150.1887043658357,5.187260758111506,0.1538796851174311
Raw,0,0,57.07950378741473,150.58012799473278,0.0,0.0
Processed,0,0,52.11992829867546,150.28656027305996,6.612767318319015,0.39142362889708693
Raw,0,0,0.0,0.0,0.0,0.0
Motor,0,0,57.67353057861328,150.0,0.0,0.0
Raw,0,0,59.69969987030957,150.6528373619625,0.0,0.0
Processed,0,0,54.01487119158399,150.3781295452856,7.579771571634126,0.3662770889025069
Raw,0,0,60.05480756263302,150.5874018686531,0.0,0.0
Processed,0,0,55.524855284346245,150.4304476261275,6.039936371049009,0.2092723233675997
Raw,0,0,61.757797661578,150.4436566834677,0.0,0.0
Processed,0,0,57.08309087865418,150.43374989046254,6.232942377231751,0.013209057340191066
Raw,0,0,61.83515161623525,150.3101547757887,0.0,0.0
Processed,0,0,58.271106063049444,150.40285111179406,4.752060737581047,-0.12359511467388984
Raw,0,0,0.0,0.0,0.0,0.0
Raw,0,0,65.2008089964877,150.7549466100198,0.0,0.0
Processed,0,0,60.00353179640901,150.4908749863505,6.92970293343825,0.35209549822570807
Raw,0,0,66.2148392168694,150.16777435469447,0.0,0.0
Processed,0,0,61.55635865152411,150.4100998284365,6.2113074204604,-0.3231006316559615
Raw,0,0,0.0,0.0,0.0,0.0
Motor,0,0,69.08567786216736,150.0,0.0,0.0
Raw,0,0,68.71061697605273,150.5529329489643,0.0,0.0
Processed,0,0,63.344923232656264,150.44580810856846,7.154258324528627,0.14283312052782549
Raw,0,0,70.64250101285432,150.73417491841167,0.0,0.0
Processed,0,0,65.16931767770578,150.51789981102925,7.297577780198054,0.28836680984318264
Raw,0,0,72.43302199379004,149.78907229623465,0.0,0.0
Processed,0,0,66.98524375672685,150.3356929323306,7.263704316084272,-0.7288275147946024
Raw,0,0,72.49980523276537,149.19208278374427,0.0,0.0
Processed,0,0,68.36388412573648,150.049790395184,5.514561476038523,-1.14361014858639
Raw,0,0,74.47285711964341,150.5764132905488,0.0,0.0
Processed,0,0,69.8911273742132,150.1814461190252,6.108972993906889,0.5266228953647669
Raw,0,0,75.50497785951192,150.5968705455325,0.0,0.0
Processed,0,0,71.29458999553788,150.28530222565203,5.613850485298713,0.415424426507343
Raw,0,0,76.7308059803483,150.60610948792123,0.0,0.0
Processed,0,0,72.65364399174048,150.36550404121934,5.436215984810417,0.32080726226922707
Raw,0,0,78.6860935882908,149.8652389155646,0.0,0.0
Processed,0,0,74.16175639087807,150.24043775980567,6.03244959655035,-0.5002651256546642
Motor,0,0,78.92625212669373,150.0,0.0,0.0
Raw,0,0,79.37028766016805,150.20105768412276,0.0,0.0
Processed,0,0,75.46388920820057,150.23059274088496,5.208531269290006,-0.03938007568285684
Raw,0,0,81.16796103026066,149.54095563187633,0.0,0.0
Processed,0,0,76.88990716371559,150.05818346363282,5.704071822060087,-0.6896371090085722
Raw,0,0,82.0540686852625,149.26866934917783,0.0,0.0
Processed,0,0,78.18094754410232,149.86080493501908,5.16416152154693,-0.7895141144549598
Raw,0,0,82.59309670738885,150.27065457665955,0.0,0.0
Processed,0,0,79.28398483492396,149.9632673454292,4.412149163286529,0.4098496416404487
Raw,0,0,83.9772073306918,150.2134746733314,0.0,0.0
Processed,0,0,80.45729045886591,150.02581917740474,4.693222495767827,0.250207327902217
Raw,0,0,87.12770495046941,149.85250381108173,0.0,0.0
Processed,0,0,82.12489408176678,149.982490335824,6.670414491603481,-0.1733153663229814
Raw,0,0,88.47964969841495,150.68846982090915,0.0,0.0
Processed,0,0,83.71358298592882,150.1589852070953,6.354755616648163,0.7059794850852086
Motor,0,0,88.24358463287354,150.0,0.0,0.0
Raw,0,0,87.97987800877186,149.66443511927872,0.0,0.0
Processed,0,0,84.78015674163959,150.03534768514118,4.266295022843053,-0.4945500878164921
Raw,0,0,90.12652368494436,149.84658077091083,0.0,0.0
Processed,0,0,86.11674847746578,149.9881559565836,5.3463669433047585,-0.1887669142303139
Raw,0,0,90.66919031462493,149.07346194333394,0.0,0.0
Processed,0,0,87.25485893675557,149.75948245327118,4.552441837159165,-0.9146940132496866
Raw,0,0,93.04855450473565,149.85922639583194,0.0,0.0
Processed,0,0,88.70328282875059,149.78441843891136,5.79369556798008,0.09974394256073538
Raw,0,0,94.07275773328644,150.1701495389994,0.0,0.0
Processed,0,0,90.04565155488454,149.88085121393337,5.369474904535821,0.38573110008803724
Raw,0,0,96.4797269703675,149.6309165825512,0.0,0.0
Processed,0,0,91.65417040875528,149.81836755608782,6.434075415482937,-0.24993463138218885
Raw,0,0,96.78569963208159,150.18382226334893,0.0,0.0
Processed,0,0,92.93705271458686,149.90973123290308,5.131529223326311,0.3654547072610512
Motor,0,0,98.17500710487366,150.0,0.0,0.0
Raw,0,0,97.8080693832171,150.40209464094173,0.0,0.0
Processed,0,0,94.15480688174442,150.03282208491274,4.871016668630261,0.49236340803861367
Raw,0,0,99.32156234456544,150.40137896923275,0.0,0.0
Processed,0,0,95.44649574744967,150.12496130599274,5.1667554628210155,0.36855688432001443
Raw,0,0,101.32962030153584,149.1968057829645,0.0,0.0
Processed,0,0,96.91727688597122,149.89292242523567,5.88312455408618,-0.9281555230282947
Raw,0,0,102.70375571640162,150.31134159999786,0.0,0.0
Processed,0,0,98.36389659357883,149.99752721892622,5.78647883043044,0.4184191747622208
Raw,0,0,103.20383394726527,149.42682437289682,0.0,0.0
Processed,0,0,99.57388093200043,149.85485150741886,4.839937353686423,-0.5707028460294623
Raw,0,0,105.88171027901208,149.0102308362647,0.0,0.0
Processed,0,0,101.15083826875335,149.6436963396303,6.307829347011648,-0.844620671154189
Raw,0,0,105.4404642994923,147.95885711054052,0.0,0.0
Processed,0,0,102.2232447764381,149.22248653235786,4.289626030738987,-1.6848392290897891
Raw,0,0,104.62804967651199,148.25531287055736,0.0,0.0
Processed,0,0,102.82444600145656,148.98069311690773,2.4048049000738843,-0.9671736618005298
Raw,0,0,104.98174268929752,146.88405949995587,0.0,0.0
Processed,0,0,103.3637701734168,148.45653471266976,2.157296687840926,-2.0966336169518627
Raw,0,0,104.94060658605716,145.39917559759678,0.0,0.0
Processed,0,0,103.75797927657689,147.69219493390153,1.5768364126403753,-3.057359115072927
Motor,0,0,105.0,144.1058373451233,0.0,0.0
Raw,0,0,104.2027405243169,142.75837486190653,0.0,0.0
Processed,0,0,103.8691695885119,146.45873991590278,0.44476124774001846,-4.933820071995001
Raw,0,0,105.53558221672002,141.90044953038432,0.0,0.0
Processed,0,0,104.28577274556392,145.31916731952316,1.6664126282080929,-4.5582903855184895
Raw,0,0,104.74252799214995,141.3065715057182,0.0,0.0
Processed,0,0,104.39996155721042,144.31601836607192,0.456755246585999,-4.012595813804978
Raw,0,0,105.40269547334428,139.74927121782162,0.0,0.0
Processed,0,0,104.65064503624389,143.17433157900933,1.0027339161338773,-4.566747148250329
Raw,0,0,0.0,0.0,0.0,0.0
Raw,0,0,104.62584533811058,136.6918687389931,0.0,0.0
Processed,0,0,104.64444511171057,141.55371586900526,-0.02479969813327898,-6.4824628400162965
Raw,0,0,105.38621355294681,134.4108254085305,0.0,0.0
Processed,0,0,104.82988722201962,139.76799325388657,0.7417684412362178,-7.142890460474746
Raw,0,0,105.61937422656433,133.64174074773925,0.0,0.0
Processed,0,0,105.0272589731558,138.23643012734973,0.7894870045446964,-6.1262525061473525
Motor,0,0,105.0,133.0115020275116,0.0,0.0
Raw,0,0,105.11634462936377,131.79354691121637,0.0,0.0
Processed,0,0,105.0495303872078,136.62570932331639,0.08908565620799891,-6.442883216133396
Raw,0,0,105.90663698516464,130.67562717694688,0.0,0.0
Processed,0,0,105.263807036697,135.13818878672402,0.8571065979568289,-5.950082146369482
Raw,0,0,104.16922627324631,129.9074440835157,0.0,0.0
Processed,0,0,104.99016184583432,133.83050261092194,-1.0945807634507219,-5.230744703208302
Raw,0,0,104.00369556032445,128.674523917247,0.0,0.0
Processed,0,0,104.74354527445685,132.5415079375032,-0.9864662855098913,-5.155978693674911
Raw,0,0,105.36517576832688,127.03284716014139,0.0,0.0
Processed,0,0,104.89895289792436,131.16434274316276,0.6216304938700432,-5.508660777361797
Raw,0,0,105.6241146552657,125.10071115878189,0.0,0.0
Processed,0,0,105.0802433372597,129.64843484706753,0.7251617573413682,-6.063631584380914
Raw,0,0,104.50429824454909,124.63806962678626,0.0,0.0
Processed,0,0,104.93625706408204,128.39584354199724,-0.57594509271064,-5.010365220281187
Raw,0,0,105.63204184191868,122.29913765920227,0.0,0.0
Processed,0,0,105.1102032585412,126.8716670712985,0.6957847778366499,-6.096705882794936
Motor,0,0,105.0,123.1190836429596,0.0,0.0
Raw,0,0,104.58411742667016,122.65233978156027,0.0,0.0
Processed,0,0,104.97868180057344,125.81683524886395,-0.5260858318710575,-4.219327289738203
Raw,0,0,105.38928130463637,121.07290350334809,0.0,0.0
Processed,0,0,105.08133167658917,124.63085231248498,0.41059950406292955,-4.7439317455159085
Raw,0,0,104.03653653191932,119.00901507121392,0.0,0.0
Processed,0,0,104.82013289042172,123.22539300216721,-1.0447951446698198,-5.621837241271066
Raw,0,0,104.32111098058843,117.00137366967654,0.0,0.0
Processed,0,0,104.69537741296338,121.66938816904454,-0.4990219098333455,-6.224019332490684
Raw,0,0,104.83227399131597,116.12354582271668,0.0,0.0
Processed,0,0,104.72960155755153,120.28292758246258,0.13689657835260505,-5.545842346327845
Raw,0,0,104.79600524292177,116.2295116160097,0.0,0.0
Processed,0,0,104.74620247889409,119.26957359084936,0.06640368537023278,-4.05341596645286
Raw,0,0,104.9423582158319,114.06822558071214,0.0,0.0
Processed,0,0,104.79524141312855,117.96923658831506,0.19615573693783972,-5.201348010137224
Motor,0,0,105.0,113.28538060188293,0.0,0.0
Raw,0,0,105.63239731877856,111.99323010330352,0.0,0.0
Processed,0,0,105.00453038954105,116.47523496706216,0.8371559056499791,-5.976006485011567
Raw,0,0,104.81345786086018,110.41706618388352,0.0,0.0
Processed,0,0,104.95676225737083,114.9606927712675,-0.19107252868087699,-6.058168783178644
Raw,0,0,104.47247116259048,109.35203931984886,0.0,0.0
Processed,0,0,104.83568948367574,113.55852940841284,-0.48429109478036025,-5.608653451418661
Raw,0,0,105.35492822150601,107.857517900799,0.0,0.0
Processed,0,0,104.9654991681333,112.13327653150938,0.5192387378302783,-5.701011507613828
Raw,0,0,105.41976552439942,106.65773086473286,0.0,0.0
Processed,0,0,105.07906575719983,110.76439011481524,0.45426635626608913,-5.475545666776554
Raw,0,0,104.33963055575522,104.91299772864328,0.0,0.0
Processed,0,0,104.89420695683867,109.30154201827226,-0.7394352014446213,-5.851392386171938
Raw,0,0,105.1538644425182,103.80660094533644,0.0,0.0
Processed,0,0,104.95912132825856,107.92780675003831,0.25965748567955416,-5.494941072935774
Motor,0,0,105.0,103.83752942085266,0.0,0.0
Raw,0,0,105.21683569046577,103.9939867776148,0.0,0.0
Processed,0,0,105.02354991881036,106.94435175693243,0.2577143622071958,-3.933819972423521
Raw,0,0,105.16234404850402,102.66346991731898,0.0,0.0
Processed,0,0,105.05824845123377,105.87413129702908,0.13879412969362193,-4.280881839613414
Raw,0,0,104.80608281118495,99.77743117442272,0.0,0.0
Processed,0,0,104.99520704122156,104.34995626637749,-0.2521656400488155,-6.096700122606364
Raw,0,0,104.57232270361817,99.81962396239689,0.0,0.0
Processed,0,0,104.88948595682072,103.21737319038235,-0.42288433760336375,-4.530332303980572
Raw,0,0,104.08621768247833,98.74502473041586,0.0,0.0
Processed,0,0,104.68866888823511,102.09928607539074,-0.8032682743424289,-4.47234845996644
Raw,0,0,104.42990042954423,97.3425130325727,0.0,0.0
Processed,0,0,104.62397677356239,100.91009281468622,-0.25876845869089493,-4.756773042818054
Raw,0,0,105.39111619396465,95.42758367873225,0.0,0.0
Processed,0,0,104.81576162866295,99.53946553069773,0.767139420402259,-5.48250913595399
Raw,0,0,104.9144143456777,94.65508588341012,0.0,0.0
Processed,0,0,104.84042480791665,98.31837061887583,0.0986527170147724,-4.884379647287574
Motor,0,0,105.0,92.69649982452393,0.0,0.0
Raw,0,0,104.93984333285958,92.52790403837211,0.0,0.0
Processed,0,0,104.86527943915239,96.8707539737499,0.099418524942962,-5.7904665805037325
Raw,0,0,105.88707507120314,90.59307969617338,0.0,0.0
Processed,0,0,105.12072834716507,95.30133540435577,1.0217956320507255,-6.277674277576523
Raw,0,0,104.86790106221068,89.68136272928466,0.0,0.0
Processed,0,0,105.05752152592646,93.896342235588,-0.25282728495443507,-5.6199726750710965
Raw,0,0,104.75701936512112,87.74987608820416,0.0,0.0
Processed,0,0,104.98239598572513,92.35972569874204,-0.30050216080530845,-6.146466147383819
Raw,0,0,105.72960837289202,86.21062971281012,0.0,0.0
Processed,0,0,105.16919908251685,90.82245170225906,0.7472123871668828,-6.149095985931922
Raw,0,0,104.92493347264848,85.18852174574764,0.0,0.0
Processed,0,0,105.10813268004976,89.4139692131312,-0.2442656098683642,-5.633929956511452
Raw,0,0,105.71273442740578,83.95819545830511,0.0,0.0
Processed,0,0,105.25928311688877,88.05002577442468,0.6046017473560141,-5.455773754826055
Motor,0,0,105.0,83.41850399971008,0.0,0.0
Raw,0,0,105.84259996866899,83.00881909284955,0.0,0.0
Processed,0,0,105.40511232983383,86.7897241040309,0.5833168517802392,-5.041206681575147
Raw,0,0,105.57426813862477,81.50301206642816,0.0,0.0
Processed,0,0,105.44740128203156,85.46804609463021,0.16915580879094705,-5.28671203760274
Raw,0,0,104.28865261535347,79.36822730288023,0.0,0.0
Processed,0,0,105.15771411536204,83.94309139669272,-1.1587486666780933,-6.099818791749954
Raw,0,0,104.38806422723567,78.16866547133287,0.0,0.0
Processed,0,0,104.96530164333043,82.49948491535275,-0.7696498881264233,-5.774425925359878
Raw,0,0,104.17243996844567,78.56431516675624,0.0,0.0
Processed,0,0,104.76708622460924,81.51569247820362,-0.7928616748847617,-3.935169748596536
Raw,0,0,104.73259851035866,75.72284625498726,0.0,0.0
Processed,0,0,104.75846429604661,80.06748092239953,-0.0344877142505311,-5.792846223216372
Raw,0,0,105.77472728635226,74.29756308566728,0.0,0.0
Processed,0,0,105.01253004362303,78.62500146321646,1.0162629903056768,-5.7699178367322475
Motor,0,0,105.0,73.87101531028748,0.0,0.0
Raw,0,0,104.65064012096876,73.74431408428687,0.0,0.0
Processed,0,0,104.92205756295947,77.40482961848407,-0.3618899226542567,-4.880687378929565
Raw,0,0,105.57671307964284,72.84538860128282,0.0,0.0
Processed,0,0,105.0857214421303,76.26496936418376,0.6546555166833627,-4.559441017201266
Raw,0,0,105.95010086226011,70.30507029636402,0.0,0.0
Processed,0,0,105.30181629716276,74.77499459722883,0.8643794201298078,-5.95989906781972
Raw,0,0,105.63247247741337,68.96989149489676,0.0,0.0
Processed,0,0,105.38448034222542,73.3237188216458,0.33065618025062804,-5.805103102332112
Raw,0,0,104.32983736606843,67.91698822990128,0.0,0.0
Processed,0,0,105.12081959818617,71.97203617370967,-1.0546429761569698,-5.40673059174452
Raw,0,0,104.63792289255794,66.55315453166953,0.0,0.0
Processed,0,0,105.00009542177911,70.61731576319963,-0.4828967056282636,-5.418881642040162
Raw,0,0,104.18616409980669,65.85089479846224,0.0,0.0
Processed,0,0,104.79661259128599,69.42571052201528,-0.8139313219724613,-4.766420964737392
Raw,0,0,106.77643428022994,65.73269701452948,0.0,0.0
Processed,0,0,105.29156801352197,68.50245714514384,1.9798216889439004,-3.693013507485773
Raw,0,0,107.8974654446016,64.04151507550363,0.0,0.0
Processed,0,0,105.94304237129188,67.38722162773378,2.6058974310796543,-4.460942069640225
Motor,0,0,108.75558495521545,65.0,0.0,0.0
Raw,0,0,109.84363102610436,65.55192184516588,0.0,0.0
Processed,0,0,106.91818953499501,66.9283966820918,3.900588654812509,-1.8352997825679154
Raw,0,0,112.41987014616267,64.97922988521997,0.0,0.0
Processed,0,0,108.29360968778693,66.44110498287384,5.5016806111676715,-1.9491667968718502
Raw,0,0,111.57600861000283,62.388425958834524,0.0,0.0
Processed,0,0,109.1142094183409,65.42793522686401,3.2823989222159184,-4.052679024039321
Raw,0,0,112.33013609848857,61.99685624225743,0.0,0.0
Processed,0,0,109.91819108837782,64.57016548071236,3.2159266801476747,-3.431078984606586
Raw,0,0,111.26350568772637,59.135077231994806,0.0,0.0
Processed,0,0,110.25451973821495,63.21139341853297,1.3453145993485123,-5.4350882487175625
Raw,0,0,111.08363097347036,57.852707258261646,0.0,0.0
Processed,0,0,110.4617975470288,61.87172187846514,0.8291112352553682,-5.358686160271333
Raw,0,0,109.08636469319035,57.666126396083044,0.0,0.0
Processed,0,0,110.11793933356918,60.82032300786962,-1.375432853838447,-4.20559548238208
Raw,0,0,108.45267252723096,57.702865490821594,0.0,0.0
Processed,0,0,109.70162263198462,60.04095862860761,-1.665266806338252,-3.117457517048024
Raw,0,0,105.97311639156746,58.70514610383581,0.0,0.0
Processed,0,0,108.76949607188033,59.70700549741466,-3.7285062404171754,-1.3358125247717965
Raw,0,0,104.1758189014808,58.729463928813765,0.0,0.0
Processed,0,0,107.62107677928044,59.46262010526444,-4.5936771703995305,-0.9775415686008841
Raw,0,0,105.42105380946404,59.22493834886304,0.0,0.0
Processed,0,0,107.07107103682634,59.40319966616409,-2.200022969816416,-0.23768175640140043
Raw,0,0,105.32400591572916,61.86216656324117,0.0,0.0
Processed,0,0,106.63430475655205,60.017941390433364,-1.7470651210971369,2.45896689707709
Raw,0,0,104.10974782657182,63.50449998649528,0.0,0.0
Processed,0,0,106.003165524057,60.88958103944885,-2.5245569299802355,3.48655859606194
Raw,0,0,104.99845309245684,63.88699098171858,0.0,0.0
Processed,0,0,105.75198741615695,61.638933525016284,-1.0047124316001828,2.9974099422697407
Raw,0,0,105.56337184171304,65.52273825446268,0.0,0.0
Processed,0,0,105.70483352254597,62.60988470737789,-0.1886155744439293,3.8838047294464104
Raw,0,0,0.0,0.0,0.0,0.0
Raw,0,0,104.10799609818403,68.79903110836018,0.0,0.0
Processed,0,0,105.30562416645549,64.15717130762346,-1.5968374243619223,6.189146400982281
Raw,0,0,104.05706584409496,69.36375470066076,0.0,0.0
Processed,0,0,104.99348458586536,65.45881715588278,-1.248558322360509,5.206583393037306
Raw,0,0,104.53304480726905,71.55443094114212,0.0,0.0
Processed,0,0,104.87837464121628,66.98272060219762,-0.46043977859631013,6.0956137852593315
Raw,0,0,105.3786418018237,72.67537502200265,0.0,0.0
Processed,0,0,105.00344143136815,68.40588420714887,0.50026716060745,5.692654419805024
Raw,0,0,105.71365793383995,72.46211133998577,0.0,0.0
Processed,0,0,105.18099555698609,69.4199409903581,0.7102165024717806,4.056227132836909
Raw,0,0,104.36647734856999,74.00682709340374,0.0,0.0
Processed,0,0,104.97736600488207,70.56666251611951,-0.8145182084160751,4.586886103045629
Raw,0,0,0.0,0.0,0.0,0.0
Raw,0,0,104.64823978885168,77.44724549533325,0.0,0.0
Processed,0,0,104.89508445087448,72.28680826092295,-0.3291262160303745,6.880582979213784
Raw,0,0,105.25756000276637,79.11300778266431,0.0,0.0
Processed,0,0,104.98570333884744,73.9933581413583,0.36247555189186187,6.826199521741387
Raw,0,0,105.5053580845228,80.99455475569366,0.0,0.0
Processed,0,0,105.11561702526629,75.74365729494214,0.519654745675382,7.001196614335356
Raw,0,0,105.21383801053685,81.36153041699076,0.0,0.0
Processed,0,0,105.14017227158394,77.1481255754543,0.09822098527058643,5.61787312204865
Motor,0,0,105.0,82.05200958251953,0.0,0.0
Raw,0,0,105.61405988106893,83.50998826475038,0.0,0.0
Processed,0,0,105.25864417395519,78.73859124777832,0.4738876094850184,6.361862689296061
Raw,0,0,104.59502400355608,83.92238711825894,0.0,0.0
Processed,0,0,105.09273913135542,80.03454021539847,-0.6636201703990992,5.183795870480594
Raw,0,0,104.30164324815233,85.61261804443377,0.0,0.0
Processed,0,0,104.89496516055465,81.42905967265729,-0.7910958832030701,5.578077829035294
Raw,0,0,105.1557712840813,87.14384801329388,0.0,0.0
Processed,0,0,104.96016669143631,82.85775675781645,0.2608061235266632,5.71478834063663
Raw,0,0,105.63792209102435,87.71003381261389,0.0,0.0
Processed,0,0,105.12960554133332,84.07082602151581,0.6777553995880226,4.852277054797469
Raw,0,0,105.17347409045654,89.09990285184932,0.0,0.0
Processed,0,0,105.14057267861412,85.32809522909919,0.04386854912320359,5.0290768303335085
Raw,0,0,104.15415724723528,90.62714451024864,0.0,0.0
Processed,0,0,104.8939688207694,86.65285754938655,-0.9864154313788731,5.2990492811494505
Motor,0,0,105.0,91.94025206565857,0.0,0.0
Raw,0,0,105.57924999941206,92.71071525560438,0.0,0.0
Processed,0,0,105.06528911543008,88.16732197594101,0.6852811786426969,6.057857706217817
Raw,0,0,104.60536601129719,92.47707896416489,0.0,0.0
Processed,0,0,104.95030833939686,89.24476122299697,-0.4599231041328835,4.309756988223853
Raw,0,0,104.71094537817083,94.5520435587247,0.0,0.0
Processed,0,0,104.89046759909034,90.57158180692889,-0.23936296122604972,5.3072823357276775
Raw,0,0,105.60077919070476,95.84246201044427,0.0,0.0
Processed,0,0,105.06804549699395,91.88930185780774,0.7103115916144134,5.270880203515389
Raw,0,0,104.14420625992686,96.39933005222231,0.0,0.0
Processed,0,0,104.83708568772718,93.01680890641138,-0.9238392370670567,4.510028194414588
Raw,0,0,105.51100592836096,98.44841934741646,0.0,0.0
Processed,0,0,105.00556574788564,94.37471151666266,0.6739202406338336,5.431610441005091
Raw,0,0,105.26399593323734,99.08506675239045,0.0,0.0
Processed,0,0,105.07017329422357,95.5523003255946,0.25843018535169904,4.710355235727775
Raw,0,0,104.96386592598185,100.50919053199827,0.0,0.0
Processed,0,0,105.04359645216314,96.79152287719552,-0.10630736824168707,4.956890206403671
Motor,0,0,105.0,102.49737787246704,0.0,0.0
Raw,0,0,0.0,0.0,0.0,0.0
Raw,0,0,105.8587380245235,103.92260814636576,0.0,0.0
Processed,0,0,105.24738184525324,98.57429419448808,0.8151415723604032,7.131085269170228
Raw,0,0,105.14509345355063,105.69948702040935,0.0,0.0
Processed,0,0,105.2218097473276,100.35559240096839,-0.10228839170258652,7.1251928259212605
Raw,0,0,105.81932456307725,105.81976738096066,0.0,0.0
Processed,0,0,105.37118845126501,101.72163614596647,0.5975148157496619,5.464174979992322
Raw,0,0,104.67587063132909,108.46209431294803,0.0,0.0
Processed,0,0,105.19735899628103,103.40675068771185,-0.6953178199359513,6.740458166981512
Raw,0,0,105.44131228425408,109.64951084991392,0.0,0.0
Processed,0,0,105.25834731827429,104.96744072826237,0.24395328797305638,6.242760162202103
Raw,0,0,105.67776002355323,110.88271939566748,0.0,0.0
Processed,0,0,105.36320049459403,106.44626039511365,0.41941270527894403,5.9152786674051185
Motor,0,0,105.0,111.92178535461426,0.0,0.0
Raw,0,0,104.95006216056085,112.17808108052925,0.0,0.0
Processed,0,0,105.25991591108573,107.87921556646755,-0.4131383340331922,5.731820685415585
Raw,0,0,104.52974421935747,113.32791711595945,0.0,0.0
Processed,0,0,105.07737298815366,109.24139095384052,-0.7301716917282874,5.4487015494918865
Raw,0,0,105.91690668277093,115.33020398330663,0.0,0.0
Processed,0,0,105.28725641180796,110.76359421120705,0.8395336946172165,6.08881302946611
Raw,0,0,104.2437510664519,115.74197803999998,0.0,0.0
Processed,0,0,105.02638007546895,112.00819016840528,-1.0435053453560386,4.978383828792914
Raw,0,0,104.48442109564179,116.99625281442276,0.0,0.0
Processed,0,0,104.89089033051215,113.25520582990964,-0.5419589798272,4.988062646017454
Raw,0,0,105.18332595298347,119.71167322398128,0.0,0.0
Processed,0,0,104.96399923612998,114.86932267842755,0.2924356224713165,6.4564673940716375
Raw,0,0,104.70662549441758,120.64382145583923,0.0,0.0
Processed,0,0,104.89965580070188,116.31294737278046,-0.25737374171239935,5.7744987774116225
Motor,0,0,105.0,121.40539455413818,0.0,0.0
Raw,0,0,105.96713940172833,122.0091583114384,0.0,0.0
Processed,0,0,105.16652670095849,117.73700010744494,1.0674836010264244,5.696210938657941
Raw,0,0,105.10389247543242,123.0046030541052,0.0,0.0
Processed,0,0,105.15086814457698,119.05390084411,-0.0626342255260397,5.267602946660247
Raw,0,0,105.74776533207725,123.50391256099805,0.0,0.0
Processed,0,0,105.30009244145205,120.16640377333202,0.5968971875003035,4.450011716888071
Raw,0,0,104.60901882042657,125.44028273766608,0.0,0.0
Processed,0,0,105.12732403619567,121.48487351441554,-0.6910736210255095,5.273878964334074
Raw,0,0,104.16916332125919,127.18971843383936,0.0,0.0
Processed,0,0,104.88778385746156,122.91108474427149,-0.9581607149364686,5.704844919423806
Raw,0,0,105.81779519425577,127.95783066948619,0.0,0.0
Processed,0,0,105.12028669166011,124.17277122557516,0.9300113367942231,5.04674592521468
Raw,0,0,105.21802036037555,129.4405985182979,0.0,0.0
Processed,0,0,105.14472010883897,125.48972804875584,0.09773366871542066,5.2678272927227
Raw,0,0,105.39940311149962,130.62611401898522,0.0,0.0
Processed,0,0,105.20839085950414,126.77382454131318,0.2546830026606699,5.136385970229355
Motor,0,0,105.0,131.95461559295654,0.0,0.0
Raw,0,0,104.61674434298563,131.76987956959655,0.0,0.0
Processed,0,0,105.06047923037451,128.02283829838402,-0.5916465165184945,4.996055028283365
Raw,0,0,105.0919149211075,133.75524364978295,0.0,0.0
Processed,0,0,105.06833815305775,129.45593963623375,0.031435690732962485,5.732405351398938
Raw,0,0,104.42028469915347,134.1140163559006,0.0,0.0
Processed,0,0,104.90632478958167,130.62045881615046,-0.6480534539043106,4.658076719666838
Raw,0,0,104.91371504016674,135.44082054173145,0.0,0.0
Processed,0,0,104.90817235222794,131.82554924754572,0.007390250585046942,4.820361725581051
Raw,0,0,104.27657808568047,137.1089845010352,0.0,0.0
Processed,0,0,104.75027378559106,133.14640806091808,-0.631594266547495,5.283435253489415
Raw,0,0,104.458677158334,139.9778707693035,0.0,0.0
Processed,0,0,104.6773746287768,134.85427373801443,-0.29159662725703583,6.831462708385402
Raw,0,0,105.13980176334825,139.31840564219576,0.0,0.0
Processed,0,0,104.79298141241966,135.97030671405977,0.4624271345714419,4.464131904181386
Raw,0,0,105.3933008700196,141.7891626212521,0.0,0.0
Processed,0,0,104.94306127681966,137.42502069085785,0.6003194575999942,5.818855907192301
Motor,0,0,105.0,141.92953276634216,0.0,0.0
Raw,0,0,104.07707192147869,142.16456873795784,0.0,0.0
Processed,0,0,104.72656393798442,138.60990770263282,-0.8659893553409574,4.739548047099902
Raw,0,0,104.68927960232266,144.7819979384751,0.0,0.0
Processed,0,0,104.71724285406897,140.15293026159338,-0.03728433566180911,6.172090235842234
Raw,0,0,105.89090344299866,145.3491515175249,0.0,0.0
Processed,0,0,105.0106580013014,141.45198557557626,1.1736605889296925,5.196221255931505
Raw,0,0,104.65373723979225,147.23527967456386,0.0,0.0
Processed,0,0,104.9214278109241,142.89780910032317,-0.35692076150917273,5.783294098987653
Raw,0,0,105.6489308452581,149.14420333500226,0.0,0.0
Processed,0,0,105.1033035695076,144.45940765899294,0.7275030343340063,6.246394234679087
Raw,0,0,104.84992100798551,150.52607068097407,0.0,0.0
Processed,0,0,105.03995792912708,145.9760734144882,-0.2533825615220735,6.066663021981071
Raw,0,0,104.67530961596803,152.10871969359255,0.0,0.0
Processed,0,0,104.94879585083733,147.5092349842643,-0.364648313159023,6.132646279104392
Motor,0,0,105.0,151.35015177726746,0.0,0.0
Raw,0,0,0.0,0.0,0.0,0.0
Raw,0,0,105.00958624795003,154.62870192216087,0.0,0.0
Processed,0,0,104.96399345011551,149.28910171873844,0.060790397112725714,7.1194669378965045
Raw,0,0,104.39570210969815,155.0690128857998,0.0,0.0
Processed,0,0,104.82192061501118,150.73407951050376,-0.5682913404173178,5.7799111670613
Raw,0,0,105.64168575721314,156.4893147522038,0.0,0.0
Processed,0,0,105.02686190056167,152.17288832092876,0.819765142201959,5.7552352417000066
Raw,0,0,105.40350073086812,157.61323543606468,0.0,0.0
Processed,0,0,105.12102160813828,153.53297509971273,0.3766388303064332,5.440347115135864
Raw,0,0,104.0088435217873,159.96202220068753,0.0,0.0
Processed,0,0,104.84297708655053,155.14023687495643,-1.1121780863509798,6.429047100974799
Raw,0,0,104.98873193197261,159.52619338674202,0.0,0.0
Processed,0,0,104.87941579790605,156.23672600290283,0.1457548454220614,4.385956511785594
Raw,0,0,104.62797202918827,162.20197276602923,0.0,0.0
Processed,0,0,104.8165548557266,157.72803769368443,-0.25144376871782015,5.965246763126402
Motor,0,0,105.0,162.4100570678711,0.0,0.0
Raw,0,0,104.99769184489769,162.77005499381514,0.0,0.0
Processed,0,0,104.86183910301936,158.9885420187171,0.18113698917107968,5.042017300130738
Raw,0,0,0.0,0.0,0.0,0.0
Raw,0,0,104.25511169621635,164.95650717918772,0.0,0.0
Processed,0,0,104.7101572513186,160.48053330883477,-0.6067274068030315,5.967965160470612
Raw,0,0,104.9499307514461,166.55447153491247,0.0,0.0
Processed,0,0,104.77010062635048,161.99901786535418,0.2397735001275123,6.073938226077644
Raw,0,0,104.51350562050442,168.64934438303487,0.0,0.0
Processed,0,0,104.70595187488897,163.66159949477435,-0.25659500584606576,6.650326517680696
Raw,0,0,0.0,0.0,0.0,0.0
Raw,0,0,105.5266060696641,171.66216030246454,0.0,0.0
Processed,0,0,104.91111542358274,165.66173969669688,0.820654194775102,8.000560807690135
Motor,0,0,105.0,172.3888819217682,0.0,0.0
Raw,0,0,104.49237444369349,172.26896075624447,0.0,0.0
Processed,0,0,104.80643017861044,167.31354496158377,-0.41874097988920767,6.607221059547555
Raw,0,0,104.48849606040301,173.20637002302493,0.0,0.0
Processed,0,0,104.72694664905859,168.78675122694406,-0.317934118207404,5.892825061441158
Raw,0,0,105.85570879364514,175.04678537453057,0.0,0.0
Processed,0,0,105.00913718520522,170.3517597638407,1.128762144586517,6.260034147586566
Raw,0,0,104.7754670667765,176.9984685326176,0.0,0.0
Processed,0,0,104.95071965559805,172.01343695603492,-0.2336701184286767,6.646708768776875
Raw,0,0,105.12833618360811,178.61241931041806,0.0,0.0
Processed,0,0,104.99512378760056,173.66318254463073,0.17761652801004857,6.5989823543832244
Raw,0,0,104.03926109422373,179.18320343317592,0.0,0.0
Processed,0,0,104.75615811425635,175.04318776676703,-0.9558626933768437,5.520020888545218
Raw,0,0,105.5710200359881,179.8857614082749,0.0,0.0
Processed,0,0,104.9598735946893,176.253831177144,0.8148619217317901,4.842573641507897
Raw,0,0,105.13908487372171,182.31002210099393,0.0,0.0
Processed,0,0,105.0046764144474,177.7678789081065,0.1792112790324154,6.056190923849954
Motor,0,0,105.0,182.394291639328,0.0,0.0
Raw,0,0,105.39386375499346,184.14545131653006,0.0,0.0
Processed,0,0,105.1019732495839,179.3622720102124,0.389187340546016,6.377572408423589
Raw,0,0,104.07525178903853,185.08144794911323,0.0,0.0
Processed,0,0,104.84529288444756,180.79206599493762,-1.0267214605453887,5.719175938900889
Raw,0,0,105.05052615992605,185.66099135501526,0.0,0.0
Processed,0,0,104.89660120331719,182.009297334957,0.20523327547851977,4.868925360077583
Raw,0,0,104.50740450429092,186.66704097744503,0.0,0.0
Processed,0,0,104.79930202856062,183.17373324557903,-0.38919669902628584,4.657743642488072
Raw,0,0,104.24033515085384,187.8065054200216,0.0,0.0
Processed,0,0,104.65956030913392,184.33192628918968,-0.55896687770678,4.632772174442607
Raw,0,0,103.334151205624,188.81349093024323,0.0,0.0
Processed,0,0,104.32820803325644,185.45231744945306,-1.3254091035099123,4.481564641053524
Raw,0,0,0.0,0.0,0.0,0.0
Motor,0,0,100.59248566627502,188.0,0.0,0.0
Raw,0,0,99.68370051568202,187.02304242701834,0.0,0.0
Processed,0,0,103.16708115386284,185.8449986938444,-4.644507517574425,1.5707249775653054
Raw,0,0,97.92787852639337,187.55042781660845,0.0,0.0
Processed,0,0,101.85728049699547,186.2713559745354,-5.239202627469467,1.7054291227640306
Raw,0,0,97.04595789905117,187.53248946768386,0.0,0.0
Processed,0,0,100.6544498475094,186.5866393478225,-4.811322597944297,1.2611334931484635
Raw,0,0,96.70370992200985,187.4305515910238,0.0,0.0
Processed,0,0,99.66676486613451,186.79761740862284,-3.9507399254995335,0.8439122432013164
Raw,0,0,95.1227950354623,188.4200397613702,0.0,0.0
Processed,0,0,98.53077240846648,187.20322299680967,-4.543969830672154,1.6224223527473214
Raw,0,0,93.06058282356877,188.93183887072902,0.0,0.0
Processed,0,0,97.16322501224205,187.6353769652895,-5.470189584897696,1.7286158739193525
Raw,0,0,90.58750710309869,187.70605230711297,0.0,0.0
Processed,0,0,95.51929553495621,187.65304580074536,-6.57571790914335,0.07067534182340296
Raw,0,0,90.04125915500813,187.7924839063496,0.0,0.0
Processed,0,0,94.1497864399692,187.68790532714644,-5.478036379948037,0.13943810560431302
Motor,0,0,89.0236046579149,188.0,0.0,0.0
Raw,0,0,89.00571599805316,187.26067818492248,0.0,0.0
Processed,0,0,92.8637688294902,187.58109854159045,-5.144070441916028,-0.4272271422239555
Raw,0,0,87.74056893347752,188.34418155746246,0.0,0.0
Processed,0,0,91.58296885548702,187.77186929555845,-5.123199896012693,0.7630830158719846
Raw,0,0,85.1585645498119,187.14333099024205,0.0,0.0
Processed,0,0,89.97686777906824,187.61473471922935,-6.424404305675125,-0.6285383053163969
Raw,0,0,83.6711206251948,187.60275671993188,0.0,0.0
Processed,0,0,88.40043099059989,187.611740219405,-6.305747153873426,-0.011977999297414499
Raw,0,0,0.0,0.0,0.0,0.0
Raw,0,0,81.93166510334055,188.38414815342358,0.0,0.0
Processed,0,0,86.78323951878505,187.80484220290964,-6.468765887259337,0.7724079340185881
Raw,0,0,79.37366596213172,188.33495249067843,0.0,0.0
Processed,0,0,84.93084612962171,187.93736977485185,-7.409573556653356,0.5301102877688209
Motor,0,0,78.46027347776625,188.0,0.0,0.0
Raw,0,0,78.17687462794648,188.1744232429339,0.0,0.0
Processed,0,0,83.2423532542029,187.99663314187237,-6.753971501675267,0.23705346808208105
Raw,0,0,76.3436382920429,188.2959649388857,0.0,0.0
Processed,0,0,81.5176745136629,188.0714660911257,-6.89871496216,0.29933179701333756
Raw,0,0,74.32610326403326,187.38054497919728,0.0,0.0
Processed,0,0,79.7197817012555,187.89873581314362,-7.19157124962959,-0.6909211119283327
Raw,0,0,73.14931187222905,187.75161219225228,0.0,0.0
Processed,0,0,78.07716424399888,187.8619549079208,-6.570469829026479,-0.14712362089130693
Raw,0,0,71.73598219379578,188.76254269703247,0.0,0.0
Processed,0,0,76.49186873144811,188.0871018551987,-6.341182050203088,0.9005877891116825
Raw,0,0,69.83612755119545,187.599061168152,0.0,0.0
Processed,0,0,74.82793343638494,187.96509168343704,-6.655741180252676,-0.48804068704669135
Motor,0,0,69.21419699986775,188.0,0.0,0.0
Raw,0,0,0.0,0.0,0.0,0.0
Raw,0,0,65.47488068570739,188.7302154472896,0.0,0.0
Processed,0,0,71.61698970818813,188.0175033508317,-8.189478696641004,0.9502827952771895
Raw,0,0,64.92054129463635,188.0317098467623,0.0,0.0
Processed,0,0,69.94287760480019,188.02105497481435,-6.696448413551764,0.014206495930579877
Raw,0,0,63.020053987034665,187.2740288722765,0.0,0.0
Processed,0,0,68.21217170035881,187.8342984491799,-6.922823617765516,-0.7470261025378022
Raw,0,0,62.5536879478951,187.99890954842616,0.0,0.0
Processed,0,0,66.79755076224288,187.87545122399146,-5.658483752463724,0.16461109924625816
Raw,0,0,59.99785239690981,187.26476301384352,0.0,0.0
Processed,0,0,65.0976261709096,187.72277917145448,-6.799698365333086,-0.6106882101479414
Raw,0,0,58.837573844621915,188.22582533767547,0.0,0.0
Processed,0,0,63.53261308933768,187.84854071300973,-6.260052326287706,0.5030461662209973
Motor,0,0,58.83970128165351,188.0,0.0,0.0
Raw,0,0,56.998956138044235,188.0908730782825,0.0,0.0
Processed,0,0,61.89919885151432,187.90912380432792,-6.5336569512934375,0.24233236527277313
Raw,0,0,56.38926955222114,187.68030573651163,0.0,0.0
Processed,0,0,60.52171652669102,187.85191928737385,-5.509929299293191,-0.22881806781629166
Raw,0,0,54.63816926248324,187.01713010208758,0.0,0.0
Processed,0,0,59.05082971063908,187.64322199105226,-5.8835472642077775,-0.834789185286354
Raw,0,0,52.40333608696313,187.9350783680779,0.0,0.0
Processed,0,0,57.38895630472009,187.71618608530866,-6.647493623675956,0.29185637702562417
Raw,0,0,51.67544164251975,187.24371544755505,0.0,0.0
Processed,0,0,55.960577639170005,187.59806842587025,-5.713514662200339,-0.47247063775364495
Raw,0,0,50.95209490235651,187.26191413039152,0.0,0.0
Processed,0,0,54.708456954966636,187.5140298520006,-5.008482736813477,-0.33615429547865006
Motor,0,0,49.102348751491974,188.0,0.0,0.0
Raw,0,0,48.049129412953036,187.1786048147721,0.0,0.0
Processed,0,0,53.04362506946323,187.43017359269345,-6.659327542013614,-0.33542503722856054
Raw,0,0,46.64160367636835,187.34118912819991,0.0,0.0
Processed,0,0,51.443119721189504,187.40792747657008,-6.402021393094913,-0.0889844644934783
Raw,0,0,47.069179992637196,187.4571285110171,0.0,0.0
Processed,0,0,50.34963478905143,187.42022773518184,-4.373939728552301,0.04920103444703727
Raw,0,0,44.348548893557506,187.4186653797573,0.0,0.0
Processed,0,0,48.849363315177946,187.4198371463257,-6.0010858954939295,-0.0015623554245394189
Raw,0,0,43.3138709235305,187.94999160905027,0.0,0.0
Processed,0,0,47.46549021726608,187.55237576200685,-5.535492391647466,0.5301544627245676
Raw,0,0,41.54419440732399,188.18385938546524,0.0,0.0
Processed,0,0,45.98516626478056,187.71024666787144,-5.92129580994208,0.6314836234583936
Raw,0,0,40.024817318679524,187.7531078694622,0.0,0.0
Processed,0,0,44.495079028255304,187.72096196826914,-5.960348946101021,0.04286120159076745
Motor,0,0,39.32218419180976,188.0,0.0,0.0
Raw,0,0,38.895044031177775,188.90602141147204,0.0,0.0
Processed,0,0,43.09507027898592,188.01722682906984,-5.600034997077529,1.1850594432028174
Raw,0,0,36.68745486774462,188.55958978186754,0.0,0.0
Processed,0,0,41.49316642617559,188.15281756726927,-6.4076154112413235,0.5423629527977027
Raw,0,0,35.18801619698759,188.05967080546,0.0,0.0
Processed,0,0,39.91687886887859,188.12953087681694,-6.305150229188001,-0.09314676180929382
Raw,0,0,35.21318815105833,187.49307015446774,0.0,0.0
Processed,0,0,38.74095618942353,187.97041569622965,-4.703690717820251,-0.6364607223491703
Raw,0,0,32.30017498653925,188.5695587340909,0.0,0.0
Processed,0,0,37.130760888702454,188.12020145569494,-6.4407812028842955,0.599143037861154
Raw,0,0,31.847519981217552,188.3395650222389,0.0,0.0
Processed,0,0,35.80995066183123,188.17504234733093,-5.283240907484895,0.2193635665439615
Raw,0,0,30.135972029945318,188.77064742855734,0.0,0.0
Processed,0,0,34.39145600385975,188.32394361763755,-5.673978631885916,0.5956050812264948
Motor,0,0,29.300642013549805,188.0,0.0,0.0
Raw,0,0,0.0,0.0,0.0,0.0
Raw,0,0,26.928449561665236,187.00502985485815,0.0,0.0
Processed,0,0,32.52570439331112,187.9942151769427,-7.463006442194512,-1.3189137627794025
Raw,0,0,25.803636467378197,187.94516533625978,0.0,0.0
Processed,0,0,30.845187411827894,187.98195271677196,-6.722067925932919,-0.049049840682982904
Raw,0,0,24.937179851678973,188.7663504658746,0.0,0.0
Processed,0,0,29.368185521790664,188.17805215404763,-5.908007560148917,0.784397749102709
Raw,0,0,21.82827174633501,187.00585133233855,0.0,0.0
Processed,0,0,27.48320707792675,187.88500194862036,-7.539913775455659,-1.1722008217091116
Raw,0,0,20.60508141978027,188.91900989009875,0.0,0.0
Processed,0,0,25.76367566339013,188.14350393398996,-6.878125658146473,1.0340079414784213
Raw,0,0,19.79782777480319,188.86656548075254,0.0,0.0
Processed,0,0,24.272213691243394,188.32426932068063,-5.96584788858695,0.7230615467626649
Motor,0,0,18.84996758566963,188.0,0.0,0.0
Raw,0,0,17.862614916344732,187.90169209636483,0.0,0.0
Processed,0,0,22.66981399751873,188.21862501460168,-6.4095987748986545,-0.4225772243157735
Raw,0,0,17.02965865626997,188.3510694382248,0.0,0.0
Processed,0,0,21.25977516220654,188.25173612050747,-5.640155341248757,0.13244442362315567
Raw,0,0,14.38873727283356,187.8651054399612,0.0,0.0
Processed,0,0,19.542015689863298,188.1550784503709,-6.871037889372971,-0.3866306805463182
Raw,0,0,13.998523021511353,187.8044753482604,0.0,0.0
Processed,0,0,18.156142522775312,188.0674276748433,-5.543492668351945,-0.35060310211042633
Raw,0,0,11.724770239324153,187.15844531661983,0.0,0.0
Processed,0,0,16.548299451912523,187.8401820852874,-6.431372283451154,-0.9089823582235113
