type,longitude,latitude,dispositionX,dispositionY,velocityX,velocityY
Raw,0,0,0.0,0.0,0.0,0.0
Raw,0,0,0.0,1.2848687171936035,0.0,0.0
Raw,0,0,0.0,2.6247382164001465,0.0,0.0
Processed,0,0,0.0,1.6198360919952393,0.0,1.339869499206543
Raw,0,0,0.0,3.967972993850708,0.0,0.0
Processed,0,0,0.0,2.2068703174591064,0.0,2.3481369018554688
Raw,0,0,0.0,5.375953912734986,0.0,0.0
Processed,0,0,0.0,2.999141216278076,0.0,3.169083595275879
Raw,0,0,0.0,6.721208095550537,0.0,0.0
Processed,0,0,0.0,3.9296579360961914,0.0,3.722066879272461
Raw,0,0,0.0,8.132519721984863,0.0,0.0
Processed,0,0,0.0,4.980373382568359,0.0,4.202861785888672
Raw,0,0,0.0,9.462144374847412,0.0,0.0
Processed,0,0,0.0,6.100816130638123,0.0,4.481770992279053
Raw,0,0,0.0,10.883816480636597,0.0,0.0
Processed,0,0,0.0,7.296566218137741,0.0,4.783000349998474
Raw,0,0,0.0,12.296545505523682,0.0,0.0
Processed,0,0,0.0,8.546561039984226,0.0,4.9999792873859406
Raw,0,0,0.0,13.636817932128906,0.0,0.0
Processed,0,0,0.0,9.819125263020396,0.0,5.09025689214468
Raw,0,0,0.0,14.984595775604248,0.0,0.0
Processed,0,0,0.0,11.11049289116636,0.0,5.165470512583852
Raw,0,0,0.0,16.420475244522095,0.0,0.0
Processed,0,0,0.0,12.437988479505293,0.0,5.3099823533557355
Raw,0,0,0.0,17.723166942596436,0.0,0.0
Processed,0,0,0.0,13.759283095278079,0.0,5.2851784630911425
Raw,0,0,0.0,19.061272144317627,0.0,0.0
Processed,0,0,0.0,15.084780357537966,0.0,5.301989049039548
Raw,0,0,0.0,20.37948966026306,0.0,0.0
Processed,0,0,0.0,16.40845768321924,0.0,5.294709302725096
Raw,0,0,0.0,21.78772211074829,0.0,0.0
Processed,0,0,0.0,17.753273790101503,0.0,5.379264427529051
Raw,0,0,0.0,23.11139941215515,0.0,0.0
Processed,0,0,0.0,19.092805195614915,0.0,5.358125622053649
Raw,0,0,0.0,24.43539023399353,0.0,0.0
Processed,0,0,0.0,20.42845145520957,0.0,5.3425850383786155
Raw,0,0,0.0,25.75793743133545,0.0,0.0
Processed,0,0,0.0,21.76082294924104,0.0,5.329485976125881
Raw,0,0,0.0,27.09300398826599,0.0,0.0
Processed,0,0,0.0,23.09386820899728,0.0,5.3321810390249595
Raw,0,0,0.0,28.4320068359375,0.0,0.0
Processed,0,0,0.0,24.428402865732334,0.0,5.338138626940221
Raw,0,0,0.0,29.771442413330078,0.0,0.0
Processed,0,0,0.0,25.76416275263177,0.0,5.343039547597741
Raw,0,0,0.0,31.103628873825073,0.0,0.0
Processed,0,0,0.0,27.099029282930097,0.0,5.339466121193311
Raw,0,0,0.0,32.440160512924194,0.0,0.0
Processed,0,0,0.0,28.43431209042862,0.0,5.34113122999409
Raw,0,0,0.0,33.77241015434265,0.0,0.0
Processed,0,0,0.0,29.768836606407127,0.0,5.338098063914032
Raw,0,0,0.0,35.19437074661255,0.0,0.0
Processed,0,0,0.0,31.125220141458485,0.0,5.4255341402054285
Raw,0,0,0.0,36.536550521850586,0.0,0.0
Processed,0,0,0.0,32.478052736556506,0.0,5.411330380392087
Raw,0,0,0.0,37.86020636558533,0.0,0.0
Processed,0,0,0.0,33.823591143813715,0.0,5.382153629028835
Raw,0,0,0.0,39.20302152633667,0.0,0.0
Processed,0,0,0.0,35.16844873944446,0.0,5.379430382522969
Raw,0,0,0.0,40.53561329841614,0.0,0.0
Processed,0,0,0.0,36.51023987918738,0.0,5.3671645589716945
Raw,0,0,0.0,41.862956285476685,0.0,0.0
Processed,0,0,0.0,37.8484189807597,0.0,5.352716406289289
Raw,0,0,0.0,43.202452659606934,0.0,0.0
Processed,0,0,0.0,39.18692740047151,0.0,5.35403367884723
Raw,0,0,0.0,44.53660607337952,0.0,0.0
Processed,0,0,0.0,40.52434706869851,0.0,5.349678672907999
Raw,0,0,0.0,45.88700890541077,0.0,0.0
Processed,0,0,0.0,41.86501252787657,0.0,5.362661836712249
Raw,0,0,0.0,47.23027586936951,0.0,0.0
Processed,0,0,0.0,43.20632836324981,0.0,5.365263341492948
Raw,0,0,0.0,48.56110215187073,0.0,0.0
Processed,0,0,0.0,44.54502181040504,0.0,5.354773788620918
Raw,0,0,0.0,49.897141456604004,0.0,0.0
Processed,0,0,0.0,45.88305172195478,0.0,5.3521196461989575
Raw,0,0,0.0,51.2141215801239,0.0,0.0
Processed,0,0,0.0,47.21581918649706,0.0,5.331069858169116
Raw,0,0,0.0,52.549480199813836,0.0,0.0
Processed,0,0,0.0,48.54923443982625,0.0,5.333661013316771
Raw,0,0,0.0,53.886226415634155,0.0,0.0
Processed,0,0,0.0,49.88348243377823,0.0,5.336991975807905
Raw,0,0,0.0,55.22111773490906,0.0,0.0
Processed,0,0,0.0,51.217891259060934,0.0,5.337635301130831
Raw,0,0,0.0,56.551513671875,0.0,0.0
Processed,0,0,0.0,52.55129686226445,0.0,5.333622412814066
Raw,0,0,0.0,57.874568700790405,0.0,0.0
Processed,0,0,0.0,53.88211482189594,0.0,5.3232718385259545
Raw,0,0,0.0,59.21070575714111,0.0,0.0
Processed,0,0,0.0,55.214262555707236,0.0,5.328590935245188
Raw,0,0,0.0,60.54081678390503,0.0,0.0
Processed,0,0,0.0,56.54590111275668,0.0,5.326554228197779
Raw,0,0,0.0,61.890084743499756,0.0,0.0
Processed,0,0,0.0,57.88194702044245,0.0,5.344183630743089
Raw,0,0,0.0,63.217397928237915,0.0,0.0
Processed,0,0,0.0,59.21580974739132,0.0,5.335450907795462
Raw,0,0,0.0,64.55055236816406,0.0,0.0
Processed,0,0,0.0,60.549495402584505,0.0,5.334742620772744
Raw,0,0,0.0,65.89333653450012,0.0,0.0
Processed,0,0,0.0,61.88545568556341,0.0,5.34384113191561
Raw,0,0,0.0,67.23763227462769,0.0,0.0
Processed,0,0,0.0,63.223499832829475,0.0,5.352176589064271
Raw,0,0,0.0,68.5726535320282,0.0,0.0
Processed,0,0,0.0,64.56078825762916,0.0,5.349153699198723
Raw,0,0,0.0,69.91206169128418,0.0,0.0
Processed,0,0,0.0,65.89860661604291,0.0,5.351273433655024
Raw,0,0,0.0,71.24719858169556,0.0,0.0
Processed,0,0,0.0,67.23575460745607,0.0,5.348591965652645
Raw,0,0,0.0,72.59231925010681,0.0,0.0
Processed,0,0,0.0,68.57489576811875,0.0,5.35656464265071
Raw,0,0,0.0,73.91502857208252,0.0,0.0
Processed,0,0,0.0,69.9099289691097,0.0,5.340132803963797
Raw,0,0,0.0,75.25521039962769,0.0,0.0
Processed,0,0,0.0,71.24624932673919,0.0,5.345281430517957
Raw,0,0,0.0,76.59779071807861,0.0,0.0
Processed,0,0,0.0,72.58413467457405,0.0,5.351541391339424
Raw,0,0,0.0,77.93482422828674,0.0,0.0
Processed,0,0,0.0,73.92180706300222,0.0,5.350689553712698
Raw,0,0,0.0,79.27176833152771,0.0,0.0
Processed,0,0,0.0,75.25929738013359,0.0,5.349961268525476
Raw,0,0,0.0,80.60826420783995,0.0,0.0
Processed,0,0,0.0,76.59653908706018,0.0,5.348966827706363
Raw,0,0,0.0,81.94340109825136,0.0,0.0
Processed,0,0,0.0,77.93325458985797,0.0,5.346862011191149
Raw,0,0,0.0,83.27288150787354,0.0,0.0
Processed,0,0,0.0,79.26816131936187,0.0,5.339626918015597
Raw,0,0,0.0,84.61077928543091,0.0,0.0
Processed,0,0,0.0,80.60381581087913,0.0,5.342617966069042
Raw,0,0,0.0,85.93538761138916,0.0,0.0
Processed,0,0,0.0,81.93670876100663,0.0,5.331571800510005
Raw,0,0,0.0,87.26796746253967,0.0,0.0
Processed,0,0,0.0,83.26952343638989,0.0,5.331258701533045
Raw,0,0,0.0,88.59932899475098,0.0,0.0
Processed,0,0,0.0,84.60197482598016,0.0,5.329805558361102
Raw,0,0,0.0,89.96034979820251,0.0,0.0
Processed,0,0,0.0,85.94156856903575,0.0,5.35837497222235
Raw,0,0,0.0,91.27358794212341,0.0,0.0
Processed,0,0,0.0,87.27457341230766,0.0,5.332019373087633
Raw,0,0,0.0,92.60939121246338,0.0,0.0
Processed,0,0,0.0,88.6082778623466,0.0,5.334817800155747
Raw,0,0,0.0,93.93230080604553,0.0,0.0
Processed,0,0,0.0,89.93928359827133,0.0,5.324022943698935
Raw,0,0,0.0,95.2716588973999,0.0,0.0
Processed,0,0,0.0,91.27237742305347,0.0,5.332375299128557
Raw,0,0,0.0,96.59400939941406,0.0,0.0
Processed,0,0,0.0,92.60278541714362,0.0,5.321631976360607
Raw,0,0,0.0,97.92304396629333,0.0,0.0
Processed,0,0,0.0,93.93285005443104,0.0,5.320258549149685
Raw,0,0,0.0,99.26365613937378,0.0,0.0
Processed,0,0,0.0,95.26555157566673,0.0,5.330806084942765
Raw,0,0,0.0,100.60350060462952,0.0,0.0
Processed,0,0,0.0,96.60003883290743,0.0,5.3379490289627824
Raw,0,0,0.0,101.96671247482298,0.0,0.0
Processed,0,0,0.0,97.94170724338632,0.0,5.366673641915554
Raw,0,0,0.0,103.3459210395813,0.0,0.0
Processed,0,0,0.0,99.29276069243507,0.0,5.404213796194995
Raw,0,0,0.0,104.6797490119934,0.0,0.0
Processed,0,0,0.0,100.63950777232465,0.0,5.386988319558327
Raw,0,0,0.0,106.00777745246887,0.0,0.0
Processed,0,0,0.0,101.98157519236071,0.0,5.3682696801442376
Raw,0,0,0.0,107.3557722568512,0.0,0.0
Processed,0,0,0.0,103.32512445848333,0.0,5.374197064490488
Raw,0,0,0.0,108.6715567111969,0.0,0.0
Processed,0,0,0.0,104.66173252166172,0.0,5.346432252713555
Raw,0,0,0.0,110.00208497047424,0.0,0.0
Processed,0,0,0.0,105.99682063386484,0.0,5.340352448812496
Raw,0,0,0.0,111.3275158405304,0.0,0.0
Processed,0,0,0.0,107.32949443553123,0.0,5.330695206665553
Raw,0,0,0.0,112.7268922328949,0.0,0.0
Processed,0,0,0.0,108.67884388487215,0.0,5.397397797363681
Raw,0,0,0.0,114.06232595443726,0.0,0.0
Processed,0,0,0.0,110.02471440226343,0.0,5.383482069565105
Raw,0,0,0.0,115.38599133491516,0.0,0.0
Processed,0,0,0.0,111.36503363542636,0.0,5.36127693265172
Raw,0,0,0.0,116.7118787765503,0.0,0.0
Processed,0,0,0.0,112.70174492070734,0.0,5.346845141123936
Raw,0,0,0.0,118.0370306968689,0.0,0.0
Processed,0,0,0.0,114.03556636474772,0.0,5.335285776161527
Raw,0,0,0.0,119.4368577003479,0.0,0.0
Processed,0,0,0.0,115.38588919864776,0.0,5.401291335600149
Raw,0,0,0.0,120.78612327575684,0.0,0.0
Processed,0,0,0.0,116.73594771792503,0.0,5.400234077109076
Raw,0,0,0.0,122.1218204498291,0.0,0.0
Processed,0,0,0.0,118.08241590090105,0.0,5.385872731904101
Raw,0,0,0.0,123.48207473754884,0.0,0.0
Processed,0,0,0.0,119.43233061006299,0.0,5.399658836647745
Raw,0,0,0.0,124.80810880661011,0.0,0.0
Processed,0,0,0.0,120.77627515919977,0.0,5.375778196547117
Raw,0,0,0.0,126.16800546646118,0.0,0.0
Processed,0,0,0.0,122.12420773601512,0.0,5.391730307261412
Raw,0,0,0.0,127.48980522155762,0.0,0.0
Processed,0,0,0.0,123.46560710740074,0.0,5.36559748554248
Raw,0,0,0.0,128.8307774066925,0.0,0.0
Processed,0,0,0.0,124.80689968222369,0.0,5.365170299291776
Raw,0,0,0.0,130.16380906105042,0.0,0.0
Processed,0,0,0.0,126.14612702693037,0.0,5.356909378826742
Raw,0,0,0.0,131.50598406791687,0.0,0.0
Processed,0,0,0.0,127.486091287177,0.0,5.359857040986526
Raw,0,0,0.0,132.85802483558655,0.0,0.0
Processed,0,0,0.0,128.82907467427938,0.0,5.371933548409515
Raw,0,0,0.0,134.1834819316864,0.0,0.0
Processed,0,0,0.0,130.16767648863114,0.0,5.354407257407047
Raw,0,0,0.0,135.5204474925995,0.0,0.0
Processed,0,0,0.0,131.50586923962322,0.0,5.352771003968314
Raw,0,0,0.0,136.86360836029053,0.0,0.0
Processed,0,0,0.0,132.84530401979003,0.0,5.357739120667247
Raw,0,0,0.0,138.2087528705597,0.0,0.0
Processed,0,0,0.0,134.18616623248244,0.0,5.3634488507696005
Raw,0,0,0.0,139.54310655593872,0.0,0.0
Processed,0,0,0.0,135.5254013133465,0.0,5.356940323456229
Raw,0,0,0.0,140.8777952194214,0.0,0.0
Processed,0,0,0.0,136.86349978986522,0.0,5.352393906074894
Raw,0,0,0.0,142.22213745117188,0.0,0.0
Processed,0,0,0.0,138.20315920519187,0.0,5.358637661306602
Raw,0,0,0.0,143.56662154197693,0.0,0.0
Processed,0,0,0.0,139.54402478938812,0.0,5.363462336785005
Raw,0,0,0.0,144.91387844085693,0.0,0.0
Processed,0,0,0.0,140.88648820225532,0.0,5.369853651468816
Raw,0,0,0.0,146.29650950431824,0.0,0.0
Processed,0,0,0.0,142.23899352777104,0.0,5.410021302062887
Raw,0,0,0.0,147.73626923561096,0.0,0.0
Processed,0,0,0.0,143.61331245473102,0.0,5.49727570783989
Raw,0,0,0.0,149.1152799129486,0.0,0.0
Processed,0,0,0.0,144.9888043192854,0.0,5.501967458217564
Raw,0,0,0.4898810386657715,150.0,0.0,0.0
Processed,0,0,0.12247025966644287,146.24160323946404,0.4898810386657715,5.011195680714536
Raw,0,0,1.8343329429626465,150.0,0.0,0.0
Processed,0,0,0.5504359304904938,147.18120242959805,1.7118626832962036,3.758396760536016
Raw,0,0,3.156259059906006,150.0,0.0,0.0
Processed,0,0,1.2018917128443718,147.88590182219855,2.605823129415512,2.818797570402012
Raw,0,0,4.483444690704346,150.0,0.0,0.0
Processed,0,0,2.0222799573093653,148.4144263666489,3.281552977859974,2.114098177801452
Raw,0,0,5.828367471694946,150.0,0.0,0.0
Processed,0,0,2.9738018359057605,148.81081977498667,3.806087514385581,1.5855736333510322
Raw,0,0,7.188440561294556,150.0,0.0,0.0
Processed,0,0,4.027461517252959,149.10811483124002,4.214638725388795,1.1891802250133878
Raw,0,0,8.50293517112732,150.0,0.0,0.0
Processed,0,0,5.146329930721549,149.33108612343,4.47547365387436,0.8918851687599272
Raw,0,0,10.094350576400757,150.0,0.0,0.0
Processed,0,0,6.383335092141351,149.4983145925725,4.9480206456792075,0.6689138765700591
Raw,0,0,11.732183694839478,150.0,0.0,0.0
Processed,0,0,7.720547242815883,149.62373594442937,5.348848602698126,0.5016854074274306
Raw,0,0,13.253735303878784,150.0,0.0,0.0
Processed,0,0,9.103844258081608,149.717801958322,5.533188061062901,0.37626405557057296
Raw,0,0,14.771103858947754,150.0,0.0,0.0
Processed,0,0,10.520659158298145,149.7883514687415,5.667259600866146,0.2821980416779297
Raw,0,0,16.38076424598694,150.0,0.0,0.0
Processed,0,0,11.985685430220343,149.84126360155614,5.860105087688794,0.21164853125856098
Raw,0,0,17.7133572101593,150.0,0.0,0.0
Processed,0,0,13.417603375205083,149.8809477011671,5.727671779938959,0.15873639844380705
Raw,0,0,19.046661853790283,150.0,0.0,0.0
Processed,0,0,14.824867994851383,149.91071077587532,5.6290584785852005,0.11905229883291213
Raw,0,0,20.376039743423462,150.0,0.0,0.0
Processed,0,0,16.212660931994403,149.9330330819065,5.551171748572081,0.08928922412474094
Raw,0,0,21.705446243286133,150.0,0.0,0.0
Processed,0,0,17.585857259817335,149.94977481142988,5.492785311291726,0.06696691809349886
Raw,0,0,23.02647113800049,150.0,0.0,0.0
Processed,0,0,18.946010729363124,149.9623311085724,5.440613878183157,0.05022518857015257
Raw,0,0,24.34644341468811,150.0,0.0,0.0
Processed,0,0,20.29611890069437,149.9717483314293,5.400432685324986,0.03766889142752916
Raw,0,0,25.68198800086975,150.0,0.0,0.0
Processed,0,0,21.642586175738217,149.97881124857196,5.385869100175384,0.02825166857064687
Raw,0,0,27.011003494262695,150.0,0.0,0.0
Processed,0,0,22.984690505369336,149.98410843642898,5.368417318524479,0.02118875142809884
Raw,0,0,28.347256183624268,150.0,0.0,0.0
Processed,0,0,24.325331924933067,149.98808132732174,5.362565678254924,0.015891563571017286
Raw,0,0,29.7229266166687,150.0,0.0,0.0
Processed,0,0,25.674730597866976,149.9910609954913,5.397594691735634,0.011918672678234543
Raw,0,0,31.045975685119625,150.0,0.0,0.0
Processed,0,0,27.017541869680137,149.99329574661846,5.371245087252646,0.008939004508647486
Raw,0,0,32.381311655044556,150.0,0.0,0.0
Processed,0,0,28.35848431602124,149.99497180996383,5.363769785364411,0.006704253381485614
Raw,0,0,33.70935559272766,150.0,0.0,0.0
Processed,0,0,29.696202135197844,149.9962288574729,5.350871276706414,0.0050281900362278975
Raw,0,0,35.040743350982666,150.0,0.0,0.0
Processed,0,0,31.03233743914405,149.99717164310465,5.3445412157848295,0.0037711425270572363
Raw,0,0,36.48627042770386,150.0,0.0,0.0
Processed,0,0,32.395820686284004,149.9978787323285,5.453932988559814,0.002828356895406614
Raw,0,0,37.86416530609131,150.0,0.0,0.0
Processed,0,0,33.76290684123583,149.9984090492464,5.468344619807311,0.0021212676715549605
Raw,0,0,39.34217572212219,150.0,0.0,0.0
Processed,0,0,35.15772406145742,149.99880678693478,5.57926888088636,0.0015909507535525336
Raw,0,0,40.66478133201599,150.0,0.0,0.0
Processed,0,0,36.53448837909706,149.99910509020108,5.507057270558562,0.0011932130652212436
Raw,0,0,42.06085801124573,150.0,0.0,0.0
Processed,0,0,37.91608078713423,149.99932881765082,5.526369632148658,0.0008949097989443544
Raw,0,0,43.3928108215332,150.0,0.0,0.0
Processed,0,0,39.28526329573397,149.9994966132381,5.476730034398969,0.0006711823491514224
Raw,0,0,44.71299648284912,150.0,0.0,0.0
Processed,0,0,40.64219659251276,149.9996224599286,5.427733187115166,0.0005033867619204102
Raw,0,0,46.0400652885437,150.0,0.0,0.0
Processed,0,0,41.991663766520496,149.99971684494645,5.39786869603094,0.00037754007144030766
Raw,0,0,47.36779451370239,150.0,0.0,0.0
Processed,0,0,43.33569645331597,149.99978763370984,5.3761307471818895,0.00028315505358023074
Raw,0,0,48.68856191635132,150.0,0.0,0.0
Processed,0,0,44.67391281907481,149.99984072528238,5.352865463035357,0.00021236629015675135
Raw,0,0,50.004377365112305,150.0,0.0,0.0
Processed,0,0,46.00652895558418,149.99988054396178,5.33046454603749,0.0001592747175891418
Raw,0,0,51.31791591644287,150.0,0.0,0.0
Processed,0,0,47.334375695798855,149.99991040797133,5.311386960858698,0.00011945603819185635
Raw,0,0,52.634029388427734,150.0,0.0,0.0
Processed,0,0,48.659289118956075,149.9999328059785,5.29965369262888,8.959202864389226e-05
Raw,0,0,53.966418504714966,150.0,0.0,0.0
Processed,0,0,49.986071465395796,149.99994960448387,5.307129385758884,6.719402153976262e-05
Raw,0,0,55.28634309768677,150.0,0.0,0.0
Processed,0,0,51.311139373468535,149.9999622033629,5.300271632290958,5.039551615482196e-05
Raw,0,0,56.60571575164795,150.0,0.0,0.0
Processed,0,0,52.63478346801339,149.9999716525222,5.294576378179414,3.779663711611647e-05
Raw,0,0,57.943121194839485,150.0,0.0,0.0
Processed,0,0,53.96186789971991,149.99997873939165,5.308337726826096,2.8347477837087354e-05
Raw,0,0,59.27338957786561,150.0,0.0,0.0
Processed,0,0,55.28974831925633,149.99998405454375,5.311521678145681,2.1260608377815515e-05
Raw,0,0,60.604474544525154,150.0,0.0,0.0
Processed,0,0,56.61842987557354,149.9999880409078,5.314726225268828,1.5945456198096508e-05
Raw,0,0,61.92835211753845,150.0,0.0,0.0
Processed,0,0,57.945910436064764,149.99999103068086,5.309922241964898,1.1959092262259219e-05
Raw,0,0,63.33645701408386,150.0,0.0,0.0
Processed,0,0,59.29354708056954,149.99999327301066,5.390546578019098,8.969319196694414e-06
Raw,0,0,64.67120409011841,150.0,0.0,0.0
Processed,0,0,60.637961332956756,149.999994954758,5.377657009548869,6.726989340677392e-06
Raw,0,0,65.99207401275635,150.0,0.0,0.0
Processed,0,0,61.97648950290665,149.9999962160685,5.354112679799584,5.045242005508044e-06
Raw,0,0,67.30820178985596,150.0,0.0,0.0
Processed,0,0,63.30941757464398,149.9999971620514,5.331712286949312,3.7839315609744517e-06
Raw,0,0,68.6422872543335,150.0,0.0,0.0
Processed,0,0,64.64263499456635,149.99999787153854,5.33286967968948,2.83794861388742e-06
Raw,0,0,69.9709689617157,150.0,0.0,0.0
Processed,0,0,65.97471848635368,149.9999984036539,5.3283339671493195,2.128461460415565e-06
Raw,0,0,71.29608273506165,150.0,0.0,0.0
Processed,0,0,67.30505954853066,149.99999880274044,5.321364248707937,1.5963461237333831e-06
Raw,0,0,72.62724995613098,150.0,0.0,0.0
Processed,0,0,68.63560715043074,149.9999991020553,5.322190407600317,1.197259507534909e-06
Raw,0,0,74.03743147850037,150.0,0.0,0.0
Processed,0,0,69.98606323244815,149.99999932654148,5.401824328069608,8.979446874946007e-07
Raw,0,0,75.44740438461304,150.0,0.0,0.0
Processed,0,0,71.35139852048937,149.99999949490612,5.461341152164891,6.734585440426599e-07
Raw,0,0,76.76920533180237,150.0,0.0,0.0
Processed,0,0,72.70585022331761,149.9999996211796,5.417806811312971,5.050939080319949e-07
Raw,0,0,78.09913277626038,150.0,0.0,0.0
Processed,0,0,74.0541708615533,149.9999997158847,5.393282552942765,3.7882045944570564e-07
Raw,0,0,79.43940877914429,150.0,0.0,0.0
Processed,0,0,75.40048034095105,149.99999978691352,5.385237917590985,2.841152308974415e-07
Raw,0,0,80.77154636383057,150.0,0.0,0.0
Processed,0,0,76.74324684667093,149.99999984018513,5.371066022879518,2.1308642317308113e-07
Raw,0,0,82.10951328277588,150.0,0.0,0.0
Processed,0,0,78.08481345569717,149.99999988013883,5.366266436104979,1.5981481737981085e-07
Raw,0,0,83.45114707946777,150.0,0.0,0.0
Processed,0,0,79.42639686163983,149.99999991010412,5.366333623770629,1.19861169878277e-07
Raw,0,0,84.77855563163757,150.0,0.0,0.0
Processed,0,0,80.76443655413927,149.99999993257808,5.352158769997743,8.989582056528889e-08
Raw,0,0,86.11750841140747,150.0,0.0,0.0
Processed,0,0,82.10270451845632,149.99999994943357,5.353071857268219,6.742197911080439e-08
Raw,0,0,87.4408745765686,150.0,0.0,0.0
Processed,0,0,83.43724703298439,149.99999996207518,5.338170058112269,5.056642748968443e-08
Raw,0,0,88.75823855400085,150.0,0.0,0.0
Processed,0,0,84.76749491323851,149.99999997155638,5.320991521016481,3.792479219555389e-08
Raw,0,0,90.0931167602539,150.0,0.0,0.0
Processed,0,0,86.09890037499235,149.9999999786673,5.325621847015384,2.844365099008428e-08
Raw,0,0,91.54014348983765,150.0,0.0,0.0
Processed,0,0,87.45921115370368,149.99999998400045,5.441243114845292,2.1332652977434918e-08
Raw,0,0,93.02197575569153,150.0,0.0,0.0
Processed,0,0,88.84990230420064,149.99999998800035,5.562764601987851,1.599960341991391e-08
Raw,0,0,94.49557423591614,150.0,0.0,0.0
Processed,0,0,90.26132028712951,149.99999999100027,5.645671931715469,1.1999645721516572e-08
Raw,0,0,95.82268476486206,150.0,0.0,0.0
Processed,0,0,91.65166140656265,149.99999999325019,5.561364477732582,8.999677447718568e-09
Raw,0,0,97.15488791465759,150.0,0.0,0.0
Processed,0,0,93.02746803358639,149.99999999493764,5.50322650809494,6.749814929207787e-09
Raw,0,0,98.786301612854,150.0,0.0,0.0
Processed,0,0,94.46717642840329,149.99999999620323,5.758833579267616,5.06236119690584e-09
Raw,0,0,100.54834723472595,150.0,0.0,0.0
Processed,0,0,95.98746912998396,149.99999999715243,6.081170806322689,3.7967993193888105e-09
Raw,0,0,102.03654885292053,150.0,0.0,0.0
Processed,0,0,97.4997390607181,149.99999999786434,6.04907972293654,2.8476279112510383e-09
Raw,0,0,103.4148108959198,150.0,0.0,0.0
Processed,0,0,98.97850701951853,149.99999999839827,5.915071835201729,2.1357209334382787e-09
Raw,0,0,104.76800084114075,150.0,0.0,0.0
Processed,0,0,100.42588047492409,149.9999999987987,5.789493821622216,1.6017338566598482e-09
Raw,0,0,105.0,148.90361189842224,0.0,0.0
Processed,0,0,101.56941035619306,149.7259029737046,4.574119525075901,-1.09638810037643
Raw,0,0,105.0,147.56053686141968,0.0,0.0
Processed,0,0,102.42705776714479,149.18456144563336,3.4305896438069112,-2.1653661122849144
Raw,0,0,105.0,146.14232301712036,0.0,0.0
Processed,0,0,103.07029332535859,148.42400183850512,2.572942232855212,-3.0422384285129738
Raw,0,0,105.0,144.75900411605835,0.0,0.0
Processed,0,0,103.55271999401894,147.50775240789343,1.9297066746414089,-3.664997722446742
Raw,0,0,105.0,143.41862559318542,0.0,0.0
Processed,0,0,103.9145399955142,146.48547070421643,1.4472800059810425,-4.089126814708038
Raw,0,0,105.0,142.09031462669373,0.0,0.0
Processed,0,0,104.18590499663566,145.38668168483576,1.0854600044858103,-4.395156077522643
Raw,0,0,105.0,140.75220704078674,0.0,0.0
Processed,0,0,104.38942874747674,144.2280630238235,0.8140950033643435,-4.634474644049078
Raw,0,0,105.0,139.40682411193848,0.0,0.0
Processed,0,0,104.54207156060755,143.02275329585223,0.6105712525232434,-4.821238911885075
Raw,0,0,105.0,138.07876467704773,0.0,0.0
Processed,0,0,104.65655367045566,141.7867561411511,0.45792843939244676,-4.943988618804497
Raw,0,0,105.0,136.74286365509033,0.0,0.0
Processed,0,0,104.74241525284175,140.52578301963592,0.3434463295443493,-5.043892486060713
Raw,0,0,105.0,135.4030692577362,0.0,0.0
Processed,0,0,104.80681143963132,139.245104579161,0.25758474715826196,-5.122713761899718
Raw,0,0,105.0,134.07837629318237,0.0,0.0
Processed,0,0,104.85510857972349,137.95342250766635,0.19318856036869647,-5.166728285978593
Raw,0,0,105.0,132.73534536361694,0.0,0.0
Processed,0,0,104.89133143479262,136.648903221654,0.14489142027650814,-5.218077144049403
Raw,0,0,105.0,131.3900625705719,0.0,0.0
Processed,0,0,104.91849857609446,135.33419305888347,0.10866856520738111,-5.258840651082096
Raw,0,0,105.0,130.08639931678772,0.0,0.0
Processed,0,0,104.93887393207085,134.02224462335954,0.08150142390553583,-5.247793742095723
Raw,0,0,105.0,128.77408623695374,0.0,0.0
Processed,0,0,104.95415544905313,132.7102050267581,0.06112606792913766,-5.248158386405748
Raw,0,0,105.0,127.44121789932251,0.0,0.0
Processed,0,0,104.96561658678985,131.3929582448992,0.04584455094686746,-5.268987127435594
Raw,0,0,105.0,126.12014651298523,0.0,0.0
Processed,0,0,104.97421244009239,130.0747553119207,0.03438341321015059,-5.272811731913976
Raw,0,0,105.0,124.79509592056274,0.0,0.0
Processed,0,0,104.98065933006929,128.7548404640812,0.025787559907598734,-5.2796593913579954
Raw,0,0,105.0,123.47036242485046,0.0,0.0
Processed,0,0,104.98549449755197,127.43372095427353,0.019340669930727472,-5.284478039230748
Raw,0,0,105.0,122.14689493179321,0.0,0.0
Processed,0,0,104.98912087316398,126.11201444865344,0.014505502448059815,-5.286826022480341
Raw,0,0,105.0,120.82344770431519,0.0,0.0
Processed,0,0,104.99184065487299,124.78987276256888,0.01087912683601644,-5.2885667443382545
Raw,0,0,105.0,119.50480103492737,0.0,0.0
Processed,0,0,104.99388049115474,123.4686048306585,0.00815934512701233,-5.28507172764148
Raw,0,0,105.0,118.18266987800598,0.0,0.0
Processed,0,0,104.99541036836605,122.14712109249538,0.006119508845245036,-5.285934952652497
Raw,0,0,105.0,116.86608910560608,0.0,0.0
Processed,0,0,104.99655777627454,120.82686309577306,0.004589631633962199,-5.281031986889275
Raw,0,0,105.0,115.53199768066406,0.0,0.0
Processed,0,0,104.99741833220591,119.5031467419958,0.0034422237254716492,-5.2948654151090295
Raw,0,0,105.0,114.1940701007843,0.0,0.0
Processed,0,0,104.99806374915443,118.17587758169293,0.0025816677940611044,-5.3090766412115045
Raw,0,0,105.0,112.88365840911865,0.0,0.0
Processed,0,0,104.99854781186582,116.85282278854936,0.00193625084557425,-5.292219172574278
Raw,0,0,105.0,111.54885530471802,0.0,0.0
Processed,0,0,104.99891085889936,115.52683091759152,0.0014521881341806875,-5.303967483831343
Raw,0,0,105.0,110.22796630859375,0.0,0.0
Processed,0,0,104.99918314417452,114.20211476534209,0.0010891411006355156,-5.2988646089977465
Raw,0,0,105.0,108.89557719230652,0.0,0.0
Processed,0,0,104.99938735813089,112.87548037208319,0.0008168558254624259,-5.306537573035598
Raw,0,0,105.0,107.57405996322632,0.0,0.0
Processed,0,0,104.99954051859817,111.55012526986897,0.0006126418691110302,-5.30142040885687
Raw,0,0,105.0,106.24599099159241,0.0,0.0
Processed,0,0,104.99965538894863,110.22409170029982,0.0004594814018332727,-5.304134278276592
Raw,0,0,105.0,104.92570996284485,0.0,0.0
Processed,0,0,104.99974154171147,108.89949626593608,0.00034461105138916537,-5.298381737454974
Raw,0,0,105.0,103.59322786331177,0.0,0.0
Processed,0,0,104.9998061562836,107.57292916528,0.00025845828849924146,-5.306268402624312
Raw,0,0,105.0,102.25519180297852,0.0,0.0
Processed,0,0,104.99985461721269,106.24349482470463,0.0001938437163744311,-5.3177373623015
Raw,0,0,105.0,100.91061115264893,0.0,0.0
Processed,0,0,104.99989096290952,104.9102739066907,0.00014538278730924503,-5.3328836720556865
Raw,0,0,105.0,99.58476185798645,0.0,0.0
Processed,0,0,104.99991822218215,103.57889589451464,0.00010903709051035548,-5.32551204870424
Raw,0,0,105.0,98.26179504394531,0.0,0.0
Processed,0,0,104.99993866663661,102.24962068187232,8.17778178543449e-05,-5.317100850569318
Raw,0,0,105.0,96.94279909133911,0.0,0.0
Processed,0,0,104.99995399997746,100.92291528423901,6.133336341918039e-05,-5.306821590533218
Raw,0,0,105.0,95.61882257461548,0.0,0.0
Processed,0,0,104.99996549998309,99.59689210683312,4.600002250754187e-05,-5.304092709623546
Raw,0,0,105.0,94.30554151535034,0.0,0.0
Processed,0,0,104.99997412498732,98.27405445896242,3.450001690907811e-05,-5.2913505914827965
Raw,0,0,105.0,92.97915816307068,0.0,0.0
Processed,0,0,104.99998059374049,96.95033038498948,2.5875012681808585e-05,-5.2948962958917605
Raw,0,0,105.0,91.65464639663696,0.0,0.0
Processed,0,0,104.99998544530537,95.62640938790136,1.9406259525567293e-05,-5.2956839883524935
Raw,0,0,105.0,90.32980561256409,0.0,0.0
Processed,0,0,104.99998908397903,94.30225844406704,1.455469464417547e-05,-5.296603775337303
Raw,0,0,105.0,89.01434898376465,0.0,0.0
Processed,0,0,104.99999181298428,92.98028107899144,1.0916020983131602e-05,-5.287909460302387
Raw,0,0,105.0,87.68786072731018,0.0,0.0
Processed,0,0,104.99999385973821,91.65717599107113,8.187015737348702e-06,-5.292420351681244
Raw,0,0,105.0,86.36215806007385,0.0,0.0
Processed,0,0,104.99999539480366,90.3334215083218,6.140261803011526e-06,-5.29501793099729
Raw,0,0,105.0,85.04265308380127,0.0,0.0
Processed,0,0,104.99999654610275,89.01072940219167,4.605196352258645e-06,-5.290768424520536
Raw,0,0,105.0,83.72854232788086,0.0,0.0
Processed,0,0,104.99999740957706,87.69018263361397,3.453897249983129e-06,-5.282187074310798
Raw,0,0,105.0,82.41777300834656,0.0,0.0
Processed,0,0,104.9999980571828,86.37208022729712,2.590422923276492e-06,-5.272409625267414
Raw,0,0,105.0,81.08509302139282,0.0,0.0
Processed,0,0,104.9999985428871,85.05033342582104,1.9428172208790784e-06,-5.286987205904325
Raw,0,0,105.0,79.7660744190216,0.0,0.0
Processed,0,0,104.99999890716532,83.72926867412119,1.4571128872375994e-06,-5.284259006799402
Raw,0,0,105.0,78.44627261161804,0.0,0.0
Processed,0,0,104.99999918037399,82.40851965849541,1.0928346796390542e-06,-5.282996062503116
Raw,0,0,105.0,77.12330341339111,0.0,0.0
Processed,0,0,104.99999938528049,81.08721559721934,8.19625995518436e-07,-5.285216245104266
Raw,0,0,105.0,75.78802227973938,0.0,0.0
Processed,0,0,104.99999953896037,79.76241726784934,6.147195108496817e-07,-5.29919331747999
Raw,0,0,105.0,74.45924878120422,0.0,0.0
Processed,0,0,104.99999965422028,78.43662514618806,4.6103963313726126e-07,-5.30316848664512
Raw,0,0,105.0,73.13894987106323,0.0,0.0
Processed,0,0,104.9999997406652,77.11220632740685,3.4577971064209123e-07,-5.2976752751248455
Raw,0,0,105.0,71.8135142326355,0.0,0.0
Processed,0,0,104.9999998054989,75.78753330371401,2.5933479719242314e-07,-5.298692094771354
Raw,0,0,105.0,70.48765778541565,0.0,0.0
Processed,0,0,104.99999985412418,74.46256442413943,1.9450112631602678e-07,-5.299875518298336
Raw,0,0,105.0,69.16421055793762,0.0,0.0
Processed,0,0,104.99999989059313,73.13797595758898,1.4587578789360123e-07,-5.298353866201808
Raw,0,0,105.0,67.82559514045715,0.0,0.0
Processed,0,0,104.99999991794485,71.80988075330602,1.0940686934191035e-07,-5.312380817131839
Raw,0,0,105.0,66.49146914482117,0.0,0.0
Processed,0,0,104.99999993845864,70.48027785118481,8.20551804281422e-08,-5.318411608484837
Raw,0,0,105.0,65.15318870544434,0.0,0.0
Processed,0,0,104.99999995384398,69.14850556474968,6.154135689939721e-08,-5.327089145740501
Raw,0,0,106.6430516242981,65.0,0.0,0.0
Processed,0,0,105.41076287145751,68.11137917356226,1.6430516704540992,-4.148505564749712
Raw,0,0,108.49332594871521,65.0,0.0,0.0
Processed,0,0,106.18140364077193,67.3335343801717,3.082563077257703,-3.111379173562227
Raw,0,0,110.34521412849426,65.0,0.0,0.0
Processed,0,0,107.22235626270252,66.75015078512877,4.163810487722344,-2.333534380171727
Raw,0,0,112.0,64.78946948051453,0.0,0.0
Processed,0,0,108.41676719702689,66.2599804589752,4.777643737297467,-1.9606813046142406
Raw,0,0,112.0,62.930989027023315,0.0,0.0
Processed,0,0,109.31257539777016,65.42773260098724,3.5832328029731,-3.328991431951863
Raw,0,0,112.0,61.1048424243927,0.0,0.0
Processed,0,0,109.98443154832762,64.3470100568386,2.6874246022298394,-4.322890176594569
Raw,0,0,112.0,59.220675468444824,0.0,0.0
Processed,0,0,110.48832366124572,63.065426409740155,2.0155684516723795,-5.1263345883937745
Raw,0,0,111.3842933177948,58.0,0.0,0.0
Processed,0,0,110.71231607538299,61.799069807305116,0.8959696565490844,-5.065426409740155
Raw,0,0,109.52087450027466,58.0,0.0,0.0
Processed,0,0,110.4144556816059,60.84930235547884,-1.1914415751083425,-3.799069807305102
Raw,0,0,107.66757273674011,58.0,0.0,0.0
Processed,0,0,109.72773494538946,60.13697676660913,-2.7468829448657743,-2.849302355478841
Raw,0,0,105.79064559936523,58.0,0.0,0.0
Processed,0,0,108.7434626088834,59.602732574956846,-3.9370893460242087,-2.1369767666091377
Raw,0,0,105.0,58.76548099517822,0.0,0.0
Processed,0,0,107.80759695666255,59.39341968001219,-3.7434626088834193,-0.8372515797786377
Raw,0,0,105.0,60.09443807601929,0.0,0.0
Processed,0,0,107.10569771749691,59.56867427901396,-2.8075969566625645,0.7010183960071004
Raw,0,0,105.0,61.415457010269165,0.0,0.0
Processed,0,0,106.57927328812268,60.03036996182776,-2.1056977174969234,1.846782731255189
Raw,0,0,105.0,62.74047064781189,0.0,0.0
Processed,0,0,106.184454966092,60.70789513332379,-1.5792732881226925,2.7101006859841164
Raw,0,0,105.0,64.05671644210815,0.0,0.0
Processed,0,0,105.888341224569,61.545100460519876,-1.1844549660920052,3.348821308784352
Raw,0,0,105.0,65.38357067108154,0.0,0.0
Processed,0,0,105.66625591842676,62.50471801316029,-0.8883412245689897,3.838470210561667
Raw,0,0,105.0,66.72278213500977,0.0,0.0
Processed,0,0,105.49969193882006,63.55923404362266,-0.6662559184267707,4.218064121849466
Raw,0,0,105.0,68.0606381893158,0.0,0.0
Processed,0,0,105.37476895411504,64.68458508004593,-0.4996919388200922,4.501404145693101
Raw,0,0,105.0,69.37873888015747,0.0,0.0
Processed,0,0,105.28107671558628,65.85812353007381,-0.37476895411504074,4.694153800111508
Raw,0,0,105.0,70.70920038223267,0.0,0.0
Processed,0,0,105.21080753668971,67.07089274311352,-0.28107671558626635,4.851076852158826
Raw,0,0,105.0,72.03715252876282,0.0,0.0
Processed,0,0,105.15810565251729,68.31245768952584,-0.21080753668968555,4.966259785649299
Raw,0,0,105.0,73.36629319190979,0.0,0.0
Processed,0,0,105.11857923938797,69.57591656512183,-0.15810565251729258,5.053835502383947
Raw,0,0,105.0,74.69260382652283,0.0,0.0
Processed,0,0,105.08893442954098,70.85508838047208,-0.11857923938794102,5.116687261401012
Raw,0,0,105.0,76.02694201469421,0.0,0.0
Processed,0,0,105.06670082215574,72.14805178902762,-0.08893442954098418,5.1718536342221455
Raw,0,0,105.0,77.37511086463928,0.0,0.0
Processed,0,0,105.05002561661681,73.45481655793054,-0.06670082215572393,5.227059075611692
Raw,0,0,105.0,78.71970105171204,0.0,0.0
Processed,0,0,105.0375192124626,74.77103768137592,-0.05002561661683558,5.264884493781494
Raw,0,0,105.0,80.05642461776733,0.0,0.0
Processed,0,0,105.02813940934695,76.09238441547377,-0.03751921246259826,5.285386936391433
Raw,0,0,105.0,81.3754050731659,0.0,0.0
Processed,0,0,105.0211045570102,77.41313957989681,-0.028139409346977118,5.283020657692134
Raw,0,0,105.0,82.69091176986694,0.0,0.0
Processed,0,0,105.01582841775766,78.73258262738935,-0.021104557010175995,5.277772189970165
Raw,0,0,105.0,83.99851608276367,0.0,0.0
Processed,0,0,105.01187131331824,80.04906599123294,-0.01582841775768884,5.265933455374352
Raw,0,0,105.0,85.31194376945496,0.0,0.0
Processed,0,0,105.00890348498868,81.36478543578843,-0.011871313318238208,5.262877778221991
Raw,0,0,105.0,86.64425539970398,0.0,0.0
Processed,0,0,105.00667761374152,82.68465292676731,-0.008903484988650234,5.279469963915517
Raw,0,0,105.0,87.9710738658905,0.0,0.0
Processed,0,0,105.00500821030613,84.00625816154812,-0.006677613741544519,5.286420939123218
Raw,0,0,105.0,89.2857985496521,0.0,0.0
Processed,0,0,105.0037561577296,85.32614325857412,-0.005008210306129968,5.27954038810401
Raw,0,0,105.0,90.60864019393921,0.0,0.0
Processed,0,0,105.0028171182972,86.64676749241539,-0.003756157729583265,5.282496935365089
Raw,0,0,105.0,91.9233911037445,0.0,0.0
Processed,0,0,105.0021128387229,87.96592339524767,-0.0028171182972300812,5.276623611329114
Raw,0,0,105.0,93.23410081863403,0.0,0.0
Processed,0,0,105.00158462904217,89.28296775109426,-0.002112838722894139,5.268177423386362
Raw,0,0,105.0,94.55354261398315,0.0,0.0
Processed,0,0,105.00118847178163,90.60061146681649,-0.0015846290421563936,5.270574862888907
Raw,0,0,105.0,95.86940097808838,0.0,0.0
Processed,0,0,105.00089135383622,91.91780884463446,-0.001188471781631506,5.268789511271905
Raw,0,0,105.0,97.20991539955139,0.0,0.0
Processed,0,0,105.00066851537717,93.2408354833637,-0.0008913538362094187,5.292106554916927
Raw,0,0,105.0,98.53217887878418,0.0,0.0
Processed,0,0,105.00050138653287,94.56367133221882,-0.0006685153771854857,5.291343395420483
Raw,0,0,105.0,99.8747091293335,0.0,0.0
Processed,0,0,105.00037603989966,95.89143078149749,-0.0005013865328464817,5.311037797114693
Raw,0,0,105.0,101.19914221763611,0.0,0.0
Processed,0,0,105.00028202992475,97.21835864053214,-0.000376039899663283,5.307711436138618
Raw,0,0,105.0,102.52213168144226,0.0,0.0
Processed,0,0,105.00021152244356,98.54430190075968,-0.0002820299247332514,5.30377304091013
Raw,0,0,105.0,103.83253860473633,0.0,0.0
Processed,0,0,105.00015864183267,99.86636107675383,-0.00021152244357836025,5.288236703976622
Raw,0,0,105.0,105.15041637420654,0.0,0.0
Processed,0,0,105.0001189813745,101.18737490111701,-0.0001586418326837702,5.28405529745271
Raw,0,0,105.0,106.45772981643677,0.0,0.0
Processed,0,0,105.00008923603087,102.50496362994696,-0.00011898137449861679,5.2703549153197855
Raw,0,0,105.0,107.76657032966614,0.0,0.0
Processed,0,0,105.00006692702316,103.82036530487676,-8.923603087396259e-05,5.261606699719209
Raw,0,0,105.0,109.08952403068542,0.0,0.0
Processed,0,0,105.00005019526736,105.13765498632893,-6.69270231696828e-05,5.269158725808666
Raw,0,0,105.0,110.39782810211182,0.0,0.0
Processed,0,0,105.00003764645052,106.45269826527465,-5.0195267363051244e-05,5.260173115782891
Raw,0,0,105.0,111.72923135757446,0.0,0.0
Processed,0,0,105.00002823483788,107.7718315383496,-3.764645055071014e-05,5.276533092299815
Raw,0,0,105.0,113.07115364074707,0.0,0.0
Processed,0,0,105.00002117612841,109.09666206394897,-2.8234837884610897e-05,5.299322102397468
Raw,0,0,105.0,114.39719128608704,0.0,0.0
Processed,0,0,105.0000158820963,110.42179436948348,-2.1176128427669028e-05,5.300529222138039
Raw,0,0,105.0,115.71979331970215,0.0,0.0
Processed,0,0,105.00001191157223,111.74629410703815,-1.5882096306540916e-05,5.297998950218698
Raw,0,0,105.0,117.03624296188354,0.0,0.0
Processed,0,0,105.00000893367917,113.06878132074951,-1.1911572244116542e-05,5.28994885484542
Raw,0,0,105.0,118.3750729560852,0.0,0.0
Processed,0,0,105.00000670025938,114.39535422958343,-8.933679168876552e-06,5.306291635335697
Raw,0,0,105.0,119.69769883155823,0.0,0.0
Processed,0,0,105.00000502519453,115.72094038007714,-6.700259405079123e-06,5.3023446019748235
Raw,0,0,105.0,121.00369381904602,0.0,0.0
Processed,0,0,105.0000037688959,117.04162873981936,-5.025194525387633e-06,5.282753438968882
Raw,0,0,105.0,122.33937311172485,0.0,0.0
Processed,0,0,105.00000282667192,118.36606483279573,-3.7688959082515794e-06,5.29774437190548
Raw,0,0,105.0,123.67367792129517,0.0,0.0
Processed,0,0,105.00000212000394,119.6929681049206,-2.826671902766975e-06,5.3076130884994654
Raw,0,0,105.0,124.9929301738739,0.0,0.0
Processed,0,0,105.00000159000295,121.01795862215891,-2.1200039554969408e-06,5.299962068953278
Raw,0,0,105.0,126.32759261131287,0.0,0.0
Processed,0,0,105.00000119250221,122.3453671194474,-1.5900029666227056e-06,5.3096339891539515
Raw,0,0,105.0,127.65354919433594,0.0,0.0
Processed,0,0,105.00000089437665,123.67241263816953,-1.1925022249670292e-06,5.308182074888521
Raw,0,0,105.0,128.97222447395325,0.0,0.0
Processed,0,0,105.0000006707825,124.99736559711546,-8.943766260927077e-07,5.299811835783714
Raw,0,0,105.0,130.2956657409668,0.0,0.0
Processed,0,0,105.00000050308688,126.3219406330783,-6.707824695695308e-07,5.29830014385135
Raw,0,0,105.0,131.62120151519775,0.0,0.0
Processed,0,0,105.00000037731516,127.64675585360817,-5.030868805988575e-07,5.2992608821194835
Raw,0,0,105.0,132.894038438797,0.0,0.0
Processed,0,0,105.00000028298638,128.95857649990538,-3.773151320274337e-07,5.247282585188827
Raw,0,0,105.0,134.21094822883606,0.0,0.0
Processed,0,0,105.00000021223978,130.27166943213805,-2.829863774422847e-07,5.2523717289307115
Raw,0,0,105.0,135.538241147995,0.0,0.0
Processed,0,0,105.00000015917983,131.58831236110228,-2.1223979729256826e-07,5.266571715856912
Raw,0,0,105.0,136.8750922679901,0.0,0.0
Processed,0,0,105.00000011938488,132.91000733782425,-1.5917981954771676e-07,5.286779906887887
Raw,0,0,105.0,138.19206643104553,0.0,0.0
Processed,0,0,105.00000008953866,134.23052211112957,-1.1938487887164229e-07,5.282059093221278
Raw,0,0,105.0,139.5058970451355,0.0,0.0
Processed,0,0,105.00000006715399,135.54936584463104,-8.953867336458643e-08,5.2753749340058675
Raw,0,0,105.0,140.818683385849,0.0,0.0
Processed,0,0,105.00000005036549,136.86669522993554,-6.715401923429454e-08,5.269317541218015
Raw,0,0,105.0,142.1333019733429,0.0,0.0
Processed,0,0,105.00000003777411,138.18334691578738,-5.036548600401147e-08,5.266606743407351
Raw,0,0,105.0,143.4574716091156,0.0,0.0
Processed,0,0,105.00000002833059,139.50187808911943,-3.777410029215389e-08,5.27412469332819
Raw,0,0,105.0,144.7883861064911,0.0,0.0
Processed,0,0,105.00000002124794,140.82350509346236,-2.8330589429970132e-08,5.286508017371716
Raw,0,0,105.0,146.10234904289246,0.0,0.0
Processed,0,0,105.00000001593595,142.14321608081988,-2.1247956283332314e-08,5.278843949430097
Raw,0,0,105.0,147.4111955165863,0.0,0.0
Processed,0,0,105.00000001195197,143.46021093976148,-1.5935938790789805e-08,5.267979435766392
Raw,0,0,105.0,148.7434046268463,0.0,0.0
Processed,0,0,105.00000000896398,144.78100936153268,-1.1951954093092354e-08,5.283193687084804
Raw,0,0,105.0,150.05437779426575,0.0,0.0
Processed,0,0,105.00000000672298,146.09935146971594,-8.96397978067398e-09,5.273368432733037
Raw,0,0,105.0,151.36743593215942,0.0,0.0
Processed,0,0,105.00000000504224,147.41637258532683,-6.7229848355054855e-09,5.2680844624435395
Raw,0,0,105.0,152.68781352043152,0.0,0.0
Processed,0,0,105.00000000378168,148.734232819103,-5.042238626629114e-09,5.2714409351046925
Raw,0,0,105.0,154.00324153900146,0.0,0.0
Processed,0,0,105.00000000283626,150.05148499907762,-3.781678969971836e-09,5.269008719898466
Raw,0,0,105.0,155.31492400169373,0.0,0.0
Processed,0,0,105.0000000021272,151.36734474973164,-2.8362592274788767e-09,5.26343900261611
Raw,0,0,105.0,156.64105820655823,0.0,0.0
Processed,0,0,105.0000000015954,152.6857731139383,-2.1271944206091575e-09,5.273713456826613
Raw,0,0,105.0,157.9522864818573,0.0,0.0
Processed,0,0,105.00000000119655,154.00240145591806,-1.5953673937474377e-09,5.26651336791906
Raw,0,0,105.0,159.26492977142334,0.0,0.0
Processed,0,0,105.00000000089742,155.31803353479438,-1.1965539670200087e-09,5.262528315505278
Raw,0,0,105.0,160.5740945339203,0.0,0.0
Processed,0,0,105.00000000067305,156.63204878457586,-8.974438969744369e-10,5.256060999125907
Raw,0,0,105.0,161.91101121902466,0.0,0.0
Processed,0,0,105.0000000005048,157.95178939318805,-6.730260793119669e-10,5.278962434448772
Raw,0,0,105.0,163.23364186286926,0.0,0.0
Processed,0,0,105.0000000003786,159.27225251060835,-5.047695594839752e-10,5.281852469681212
Raw,0,0,105.0,164.54510617256165,0.0,0.0
Processed,0,0,105.00000000028396,160.59046592609667,-3.785771696129814e-10,5.272853661953263
Raw,0,0,105.0,165.86617755889893,0.0,0.0
Processed,0,0,105.00000000021296,161.90939383429725,-2.8398972062859684e-10,5.275711632802313
Raw,0,0,105.0,167.18768405914307,0.0,0.0
Processed,0,0,105.00000000015973,163.2289663905087,-2.1293544705258682e-10,5.278290224845819
Raw,0,0,105.0,168.50053000450134,0.0,0.0
Processed,0,0,105.0000000001198,164.54685729400686,-1.5973000699887052e-10,5.271563613992612
Raw,0,0,105.0,169.81688785552979,0.0,0.0
Processed,0,0,105.00000000008984,165.8643649343876,-1.198259269585833e-10,5.270030561522958
Raw,0,0,105.0,171.1355845928192,0.0,0.0
Processed,0,0,105.00000000006739,167.1821698489955,-8.981260180007666e-11,5.271219658431619
Raw,0,0,105.0,172.4769263267517,0.0,0.0
Processed,0,0,105.00000000005053,168.50585896843455,-6.74162947689183e-11,5.294756477756209
Raw,0,0,105.0,173.80109119415283,0.0,0.0
Processed,0,0,105.0000000000379,169.82966702486414,-5.0533799367258325e-11,5.295232225718337
Raw,0,0,105.0,175.11081266403198,0.0,0.0
Processed,0,0,105.00000000002842,171.14995343465608,-3.7914560380158946e-11,5.281145639167789
Raw,0,0,105.0,176.43358874320984,0.0,0.0
Processed,0,0,105.00000000002132,172.47086226179454,-2.8421709430404007e-11,5.283635308553812
Raw,0,0,105.0,177.74979996681213,0.0,0.0
Processed,0,0,105.00000000001599,173.79059668804894,-2.1316282072803006e-11,5.278937705017597
Raw,0,0,105.0,179.06661319732666,0.0,0.0
Processed,0,0,105.000000000012,175.10960081536837,-1.5973000699887052e-11,5.276016509277724
Raw,0,0,105.0,180.38842248916626,0.0,0.0
Processed,0,0,105.000000000009,176.42930623381784,-1.1993961379630491e-11,5.278821673797893
Raw,0,0,105.0,181.6988079547882,0.0,0.0
Processed,0,0,105.00000000000675,177.74668166406042,-8.981260180007666e-12,5.269501720970311
Raw,0,0,105.0,183.00922083854675,0.0,0.0
Processed,0,0,105.00000000000506,179.06231645768202,-6.764366844436154e-12,5.262539174486392
Raw,0,0,105.0,184.32049322128296,0.0,0.0
Processed,0,0,105.0000000000038,180.37686064858224,-5.059064278611913e-12,5.258176763600886
Raw,0,0,105.0,185.62945294380188,0.0,0.0
Processed,0,0,105.00000000000284,181.69000872238715,-3.808509063674137e-12,5.252592295219642
Raw,0,0,105.0,186.96824479103088,0.0,0.0
Processed,0,0,105.00000000000213,183.0095677395481,-2.8421709430404007e-12,5.278236068643764
Raw,0,0,104.71001982688904,188.0,0.0,0.0
Processed,0,0,104.92750495672385,184.25717580466107,-0.28998017311312196,4.990432260451939
Raw,0,0,103.38132858276367,188.0,0.0,0.0
Processed,0,0,104.5409608632338,185.1928818534958,-1.5461763739601793,3.742824195338926
Raw,0,0,102.06912398338318,188.0,0.0,0.0
Processed,0,0,103.92300164327115,185.89466139012185,-2.4718368798506276,2.8071181465041946
Raw,0,0,100.74841260910034,188.0,0.0,0.0
Processed,0,0,103.12935438472844,186.42099604259138,-3.174589034170822,2.1053386098781175
Raw,0,0,99.36446481280856,188.0,0.0,0.0
Processed,0,0,102.18813199174846,186.81574703194354,-3.764889571919923,1.579003957408645
Raw,0,0,97.90815379884508,188.0,0.0,0.0
Processed,0,0,101.11813744352261,187.11181027395764,-4.2799781929034,1.1842529680563985
Raw,0,0,96.43704758750067,188.0,0.0,0.0
Processed,0,0,99.94786497951712,187.33385770546823,-4.68108985602197,0.8881897260423557
Raw,0,0,94.96133857303195,188.0,0.0,0.0
Processed,0,0,98.70123337789582,187.50039327910116,-4.986526406485211,0.6661422945317099
Raw,0,0,93.5012420018514,188.0,0.0,0.0
Processed,0,0,97.4012355338847,187.62529495932586,-5.199991376044466,0.49960672089878244
Raw,0,0,92.04224480523004,188.0,0.0,0.0
Processed,0,0,96.06148785172104,187.7189712194944,-5.358990728654646,0.3747050406741437
Raw,0,0,90.58406088087294,188.0,0.0,0.0
Processed,0,0,94.69213110900901,187.7892284146208,-5.477426970848114,0.28102878050560776
Raw,0,0,89.12440405951605,188.0,0.0,0.0
Processed,0,0,93.30019934663578,187.8419213109656,-5.56772704949293,0.21077158537923424
Raw,0,0,87.66134315066867,188.0,0.0,0.0
Processed,0,0,91.890485297644,187.8814409832242,-5.638856195967094,0.15807868903436884
Raw,0,0,86.1975563897027,188.0,0.0,0.0
Processed,0,0,90.46725307065869,187.91108073741816,-5.69292890794128,0.11855901677586189
Raw,0,0,84.72308317820232,188.0,0.0,0.0
Processed,0,0,89.0312105975446,187.93331055306362,-5.744169892456341,0.08891926258183958
Raw,0,0,83.23655393388536,188.0,0.0,0.0
Processed,0,0,87.5825464316298,187.94998291479772,-5.794656663659225,0.06668944693637968
Raw,0,0,81.76387548446655,188.0,0.0,0.0
Processed,0,0,86.12787869483898,187.9624871860983,-5.818670947163241,0.05001708520228476
Raw,0,0,80.29191229078505,188.0,0.0,0.0
Processed,0,0,84.6688870938255,187.9718653895737,-5.83596640405392,0.03751281390168515
Raw,0,0,78.81547609965006,188.0,0.0,0.0
Processed,0,0,83.20553434528165,187.97889904218027,-5.8534109941754195,0.028134610426263862
Raw,0,0,77.35873063405356,188.0,0.0,0.0
Processed,0,0,81.74383341747463,187.9841742816352,-5.846803711228063,0.021100957819726318
Raw,0,0,75.89843935436673,188.0,0.0,0.0
Processed,0,0,80.28248490169766,187.9881307112264,-5.8453940631079035,0.01582571836479474
Raw,0,0,74.43430556191339,188.0,0.0,0.0
Processed,0,0,78.82044006675159,187.9910980334198,-5.848179339784281,0.011869288773596054
Raw,0,0,72.95071813795302,188.0,0.0,0.0
Processed,0,0,77.35300958455194,187.99332352506485,-5.869721928798583,0.00890196658019704
Raw,0,0,71.47933642069499,188.0,0.0,0.0
Processed,0,0,75.8845912935877,187.99499264379864,-5.8736731638569495,0.00667647493514778
Raw,0,0,70.01497215694852,188.0,0.0,0.0
Processed,0,0,74.4171865094279,187.99624448284897,-5.869619136639187,0.005007356201303992
Raw,0,0,68.61067612965901,188.0,0.0,0.0
Processed,0,0,72.96555891448568,187.99718336213672,-5.806510379768895,0.0037555171510348373
Raw,0,0,67.14110109541151,188.0,0.0,0.0
Processed,0,0,71.50944445971714,187.99788752160254,-5.824457819074155,0.0028166378632477063
Raw,0,0,65.67370096842448,188.0,0.0,0.0
Processed,0,0,70.05050858689398,187.99841564120192,-5.8357434912926465,0.002112478397521045
Raw,0,0,64.19548723432753,188.0,0.0,0.0
Processed,0,0,68.58675324875237,187.99881173090142,-5.855021352566439,0.0015843587980270968
Raw,0,0,62.72749768363105,188.0,0.0,0.0
Processed,0,0,67.12193935747204,187.99910879817605,-5.859255565121316,0.0011882690985203226
Raw,0,0,61.24389039145576,188.0,0.0,0.0
Processed,0,0,65.65242711596797,187.99933159863204,-5.878048966016308,0.0008912018239470854
Raw,0,0,59.7659985224406,188.0,0.0,0.0
Processed,0,0,64.18081996758613,187.99949869897404,-5.8864285935273415,0.0006684013679887357
Raw,0,0,58.2912630505032,188.0,0.0,0.0
Processed,0,0,62.7084307383154,187.9996240242305,-5.889556917082928,0.0005013010259062867
Raw,0,0,56.83427519268459,188.0,0.0,0.0
Processed,0,0,61.2398918519077,187.99971801817287,-5.874155545630799,0.000375975769429715
Raw,0,0,55.36665254169041,188.0,0.0,0.0
Processed,0,0,59.77158202435337,187.99978851362965,-5.873239310217315,0.00028198182712912967
Raw,0,0,53.907104333241776,188.0,0.0,0.0
Processed,0,0,58.30546260157547,187.99984138522223,-5.8644776911116026,0.00021148637029000383
Raw,0,0,52.45547427071465,188.0,0.0,0.0
Processed,0,0,56.84296551886027,187.99988103891667,-5.8499883308608105,0.0001586147777743463
Raw,0,0,50.982115003797745,188.0,0.0,0.0
Processed,0,0,55.37775289009464,187.9999107791875,-5.860850515062509,0.00011896108333075972
Raw,0,0,49.49242273966471,188.0,0.0,0.0
Processed,0,0,53.90642035248715,187.99993308439062,-5.885330150429951,8.922081246964808e-05
Raw,0,0,48.02933931350708,188.0,0.0,0.0
Processed,0,0,52.43715009274214,187.99994981329297,-5.877081038980066,6.691560940907948e-05
Raw,0,0,46.57028251224094,188.0,0.0,0.0
Processed,0,0,50.970433197616835,187.99996235996974,-5.866867580501207,5.018670708523132e-05
Raw,0,0,45.10105980767144,188.0,0.0,0.0
Processed,0,0,49.503089850130486,187.99997176997732,-5.869373389945395,3.764003031392349e-05
Raw,0,0,43.63972081078423,188.0,0.0,0.0
Processed,0,0,48.03724759029392,187.999978827483,-5.863369039346253,2.8230022735442617e-05
Raw,0,0,42.187984784444176,188.0,0.0,0.0
Processed,0,0,46.574931888831486,187.99998412061225,-5.849262805849747,2.1172516994738544e-05
Raw,0,0,40.713279777103,188.0,0.0,0.0
Processed,0,0,45.109518860899364,187.9999880904592,-5.861652111728489,1.5879387774475617e-05
Raw,0,0,39.23677735858493,188.0,0.0,0.0
Processed,0,0,43.64133348532076,187.9999910678444,-5.872741502314426,1.1909540830856713e-05
Raw,0,0,37.77282900280423,188.0,0.0,0.0
Processed,0,0,42.174207364691625,187.99999330088332,-5.868504482516528,8.932155651564244e-06
Raw,0,0,36.275059647030304,188.0,0.0,0.0
Processed,0,0,40.699420435276295,187.9999949756625,-5.899147717661322,6.699116738673183e-06
Raw,0,0,34.83770291010538,188.0,0.0,0.0
Processed,0,0,39.233991053983566,187.99999623174688,-5.861717525170917,5.0243374971614685e-06
Raw,0,0,33.36911996205649,188.0,0.0,0.0
Processed,0,0,37.767773281001794,187.99999717381016,-5.8648710919270854,3.7682531228711014e-06
Raw,0,0,31.888508796691895,188.0,0.0,0.0
Processed,0,0,36.29795715992432,187.99999788035763,-5.879264484309886,2.8261898705750355e-06
Raw,0,0,30.410432815551758,188.0,0.0,0.0
Processed,0,0,34.82607607383118,187.99999841026823,-5.887524344372565,2.119642431352986e-06
Raw,0,0,28.953656885359024,188.0,0.0,0.0
Processed,0,0,33.357971276713144,187.99999880770116,-5.872419188472151,1.5897317098279018e-06
Raw,0,0,27.452303303612595,188.0,0.0,0.0
Processed,0,0,31.881554283438007,187.99999910577588,-5.905667973100549,1.192298896057764e-06
Raw,0,0,25.981268617841934,188.0,0.0,0.0
Processed,0,0,30.40648286703899,187.9999993293319,-5.900285665596073,8.942240583564853e-07
Raw,0,0,24.51889647377861,188.0,0.0,0.0
Processed,0,0,28.934586268723894,187.99999949699892,-5.887586393260378,6.706681006107829e-07
Raw,0,0,23.059425089094375,188.0,0.0,0.0
Processed,0,0,27.465795973816515,187.9999996227492,-5.875161179629515,5.030010470363777e-07
Raw,0,0,21.60257365968492,188.0,0.0,0.0
Processed,0,0,25.999990395283618,187.99999971706188,-5.8632223141315905,3.772507852772833e-07
Raw,0,0,20.14381753073799,188.0,0.0,0.0
Processed,0,0,24.53594717914721,187.9999997877964,-5.856172864545627,2.829381173796719e-07
Raw,0,0,18.679446644253204,188.0,0.0,0.0
Processed,0,0,23.07182204542371,187.9999998408473,-5.8565005348940105,2.1220353119133506e-07
Raw,0,0,17.198055320315888,188.0,0.0,0.0
Processed,0,0,21.60338036414675,187.99999988063547,-5.873766725107828,1.5915270523692016e-07
Raw,0,0,15.725266933441162,188.0,0.0,0.0
Processed,0,0,20.133852006470356,187.99999991047662,-5.878113430705582,1.1936458577110898e-07
Raw,0,0,14.276923073662644,188.0,0.0,0.0
Processed,0,0,18.66961977326843,187.99999993285746,-5.856928932807705,8.952338248491287e-08
Raw,0,0,12.826669216156006,188.0,0.0,0.0
Processed,0,0,17.208882133990322,187.9999999496431,-5.842950557112431,6.714253686368465e-08
Raw,0,0,11.357888910505508,188.0,0.0,0.0
Processed,0,0,15.746133828119119,187.99999996223232,-5.850993223484814,5.035690264776349e-08
Raw,0,0,9.902110364702011,188.0,0.0,0.0
Processed,0,0,14.285127962264841,187.99999997167424,-5.844023463417109,3.776767698582262e-08
Raw,0,0,8.446294731563995,188.0,0.0,0.0
Processed,0,0,12.82541965458963,187.99999997875568,-5.838833230700843,2.8325757739366964e-08
Raw,0,0,6.974007023705369,188.0,0.0,0.0
Processed,0,0,11.362566496868565,187.99999998406676,-5.851412630884262,2.1244318304525223e-08
Raw,0,0,5.499961641099716,188.0,0.0,0.0
Processed,0,0,9.896915282926352,187.99999998805006,-5.862604855768851,1.5933210306684487e-08
Raw,0,0,4.024709595574265,188.0,0.0,0.0
Processed,0,0,8.428863861088331,187.99999999103755,-5.872205687352086,1.1949964573432226e-08
Raw,0,0,2.568039629194473,188.0,0.0,0.0
Processed,0,0,6.963657803114867,187.99999999327815,-5.860824231893858,8.962388164945878e-09
Raw,0,0,1.0898113250732422,188.0,0.0,0.0
Processed,0,0,5.4951961836044605,187.9999999949586,-5.873846478041624,6.721847967128269e-09
Raw,0,0,0.0,187.39352464675903,0.0,0.0
Processed,0,0,4.121397137703346,187.8483811579087,-5.49519618360446,-0.6064753481996377
Raw,0,0,0.0,185.0288290977478,0.0,0.0
Processed,0,0,3.091047853277509,187.14349314286846,-4.121397137703346,-2.8195520601609587
Raw,0,0,0.0,182.6581747531891,0.0,0.0
Processed,0,0,2.318285889958132,186.02216354544862,-3.0910478532775088,-4.485318389679378
Raw,0,0,0.0,180.29176259040833,0.0,0.0
Processed,0,0,1.7387144174685991,184.58956330668855,-2.3182858899581316,-5.730400955040295
Raw,0,0,-1.0765206813812256,179.0,0.0,0.0
Processed,0,0,1.034905642756143,183.1921724800164,-2.8152350988498247,-5.589563306688547
Raw,0,0,-3.42978572845459,179.0,0.0,0.0
Processed,0,0,-0.0812672000465402,182.1441293600123,-4.464691371210733,-4.192172480016438
Raw,0,0,-5.789136171340942,179.0,0.0,0.0
Processed,0,0,-1.5082344428701409,181.3580970200092,-5.707868971294403,-3.144129360012357
Raw,0,0,-8.149962902069092,179.0,0.0,0.0
Processed,0,0,-3.1686665576698787,180.76857276500692,-6.641728459198951,-2.358097020009154
Raw,0,0,-9.0,177.44505047798157,0.0,0.0
Processed,0,0,-4.626499918252409,179.9376921932506,-5.831333442330122,-3.3235222870252983
Raw,0,0,-9.0,175.1136679649353,0.0,0.0
Processed,0,0,-5.719874938689307,178.7316861361718,-4.37350008174759,-4.824024228315238
Raw,0,0,-9.0,172.7409472465515,0.0,0.0
Processed,0,0,-6.5399062040169795,177.23400141376672,-3.2801250613106916,-5.990738889620275
Raw,0,0,-9.0,170.37616157531738,0.0,0.0
Processed,0,0,-7.154929653012735,175.5195414541544,-2.4600937959830205,-6.8578398384493084
Raw,0,0,-7.665571689605713,170.0,0.0,0.0
Processed,0,0,-7.282590162160979,174.1396560906158,-0.5106420365929765,-5.519541454154364
Raw,0,0,-6.079929828643799,170.0,0.0,0.0
Processed,0,0,-6.981925078781684,173.10474206796187,1.20266033351718,-4.139656090615745
Raw,0,0,-4.486557483673096,170.0,0.0,0.0
Processed,0,0,-6.358083180004536,172.3285565509714,2.49536759510859,-3.1047420679618654
Raw,0,0,-2.901060104370117,170.0,0.0,0.0
Processed,0,0,-5.493827411095932,171.74641741322856,3.4570230756344174,-2.3285565509713706
Raw,0,0,-1.317755699157714,170.0,0.0,0.0
Processed,0,0,-4.449809483111378,171.30981305992142,4.176071711938217,-1.746417413228528
Raw,0,0,0.280642032623291,170.0,0.0,0.0
Processed,0,0,-3.2671966041777107,170.98235979494106,4.730451515734668,-1.3098130599214528
Raw,0,0,1.8531603813171387,170.0,0.0,0.0
Processed,0,0,-1.9871073578039984,170.7367698462058,5.120356985494849,-0.9823597949410896
Raw,0,0,3.425356864929199,170.0,0.0,0.0
Processed,0,0,-0.6339913021206991,170.55257738465434,5.412464222733197,-0.7367698462057888
Raw,0,0,4.989602565765381,170.0,0.0,0.0
Processed,0,0,0.7719071648508209,170.41443303849076,5.62359386788608,-0.5525773846543416
Raw,0,0,6.557596206665039,170.0,0.0,0.0
Processed,0,0,2.2183294253043755,170.31082477886807,5.785689041814218,-0.4144330384907562
Raw,0,0,8.125166416168213,170.0,0.0,0.0
Processed,0,0,3.695038673020335,170.23311858415104,5.906836990863837,-0.31082477886809556
Raw,0,0,9.704970359802246,170.0,0.0,0.0
Processed,0,0,5.197521594715813,170.17483893811328,6.009931686781911,-0.23311858415104325
Raw,0,0,11.28380298614502,170.0,0.0,0.0
Processed,0,0,6.719091942573114,170.13112920358498,6.086281391429207,-0.1748389381132256
Raw,0,0,12.854797840118408,170.0,0.0,0.0
Processed,0,0,8.253018416959438,170.09834690268872,6.1357058975452965,-0.13112920358503288
Raw,0,0,14.472101211547852,170.0,0.0,0.0
Processed,0,0,9.807789115606543,170.07376017701654,6.219082794588417,-0.09834690268871782
Raw,0,0,16.082403659820557,170.0,0.0,0.0
Processed,0,0,11.376442751660047,170.0553201327624,6.2746145442140175,-0.07376017701653836
Raw,0,0,17.659894466400146,170.0,0.0,0.0
Processed,0,0,12.947305680345071,170.0414900995718,6.283451714740096,-0.05532013276240377
Raw,0,0,19.228955268859863,170.0,0.0,0.0
Processed,0,0,14.51771807747377,170.03111757467886,6.281649588514796,-0.04149009957177441
Raw,0,0,20.8242244720459,170.0,0.0,0.0
Processed,0,0,16.0943446761168,170.02333818100914,6.306506394572125,-0.03111757467888765
Raw,0,0,22.401864051818848,170.0,0.0,0.0
Processed,0,0,17.671224520042312,170.01750363575684,6.307519375702043,-0.02333818100919416
Raw,0,0,23.978299140930176,170.0,0.0,0.0
Processed,0,0,19.247993175264277,170.01312772681763,6.30707462088786,-0.017503635756838776
Raw,0,0,25.569870471954346,170.0,0.0,0.0
Processed,0,0,20.828462499436796,170.00984579511322,6.321877296690076,-0.013127726817629082
Raw,0,0,27.15724468231201,170.0,0.0,0.0
Processed,0,0,22.4106580451556,170.0073843463349,6.328782182875216,-0.009845795113278655
Raw,0,0,28.681517601013184,170.0,0.0,0.0
Processed,0,0,23.978372934119996,170.00553825975118,6.270859555857584,-0.007384346334902148
Raw,0,0,30.288076400756836,170.0,0.0,0.0
Processed,0,0,25.555798800779208,170.0041536948134,6.309703466636847,-0.005538259751119767
Raw,0,0,31.8765606880188,170.0,0.0,0.0
Processed,0,0,27.135989272589107,170.00311527111006,6.320761887239598,-0.0041536948133398255
Raw,0,0,33.472795486450195,170.0,0.0,0.0
Processed,0,0,28.720190826054377,170.00233645333253,6.336806213861081,-0.003115271110118556
Raw,0,0,35.05596685409546,170.0,0.0,0.0
Processed,0,0,30.304134833064648,170.0017523399994,6.3357760280410815,-0.0023364533325320735
